County,State,lat,lng
Corozal Municipio, Puerto Rico,18.3410622,-66.3168357
Maunabo Municipio, Puerto Rico,18.0071885,-65.8993289
Peñuelas Municipio, Puerto Rico,18.0633577,-66.7273896
Ponce Municipio, Puerto Rico,18.0110768,-66.6140616
San Sebastián Municipio, Puerto Rico,18.3354756,-66.9946787
Toa Alta Municipio, Puerto Rico,18.3882823,-66.2482237
Toa Baja Municipio, Puerto Rico,18.3882823,-66.2482237
Vieques Municipio, Puerto Rico,18.1474625,-65.4448811
Yabucoa Municipio, Puerto Rico,18.0505201,-65.8793288
Aguada Municipio, Puerto Rico,18.3801579,-67.188704
Caguas Municipio, Puerto Rico,18.2387995,-66.035249
Canóvanas Municipio, Puerto Rico,18.3748748,-65.8997533
Cidra Municipio, Puerto Rico,18.1757914,-66.1612779
Coamo Municipio, Puerto Rico,18.0799616,-66.35794729999999
Dorado Municipio, Puerto Rico,18.4588347,-66.2676683
Luquillo Municipio, Puerto Rico,18.3724507,-65.7165511
Barranquitas Municipio, Puerto Rico,18.1866242,-66.3062802
Orocovis Municipio, Puerto Rico,18.2269224,-66.3911686
San Lorenzo Municipio, Puerto Rico,18.189402,-65.9609971
Añasco Municipio, Puerto Rico,18.2854476,-67.1402935
Ceiba Municipio, Puerto Rico,18.2641688,-65.6483018
Ciales Municipio, Puerto Rico,18.3353252,-66.4680716
Comerío Municipio, Puerto Rico,18.2192001,-66.2256022
Isabela Municipio, Puerto Rico,18.4703856,-67.0242062
Jayuya Municipio, Puerto Rico,18.2185674,-66.5915617
Lares Municipio, Puerto Rico,18.2946746,-66.8771211
Las Piedras Municipio, Puerto Rico,18.183014,-65.86627419999999
Río Grande Municipio, Puerto Rico,-53.7860374,-67.7002243
San Juan Municipio, Puerto Rico,18.4655394,-66.1057355
Vega Alta Municipio, Puerto Rico,18.4121703,-66.33128049999999
Vega Baja Municipio, Puerto Rico,18.4447305,-66.38773379999999
Maricao Municipio, Puerto Rico,18.1807902,-66.9799001
Aibonito Municipio, Puerto Rico,18.1399594,-66.2660016
Guayanilla Municipio, Puerto Rico,18.0191314,-66.791842
Juncos Municipio, Puerto Rico,18.2274558,-65.92099700000001
Lajas Municipio, Puerto Rico,18.049962,-67.0593449
Sabana Grande Municipio, Puerto Rico,18.0777392,-66.9604549
Adjuntas Municipio, Puerto Rico,18.1627363,-66.7221187
Camuy Municipio, Puerto Rico,18.451728,-66.85357490000001
Guánica Municipio, Puerto Rico,17.9725145,-66.9086264
Hormigueros Municipio, Puerto Rico,18.1396799,-67.1274019
Manatí Municipio, Puerto Rico,18.433005,-66.4758583
Naguabo Municipio, Puerto Rico,18.2116247,-65.7348841
Naranjito Municipio, Puerto Rico,18.3007861,-66.2448904
San Germán Municipio, Puerto Rico,18.0807082,-67.0411096
Utuado Municipio, Puerto Rico,18.2655095,-66.70045189999999
Arecibo Municipio, Puerto Rico,18.4596051,-66.74417249999999
Arroyo Municipio, Puerto Rico,17.9658005,-66.0612756
Cataño Municipio, Puerto Rico,18.4465355,-66.1355775
Florida Municipio, Puerto Rico,18.3630091,-66.5581092
Hatillo Municipio, Puerto Rico,18.4863331,-66.82545449999999
Humacao Municipio, Puerto Rico,18.1551337,-65.8203943
Juana Díaz Municipio, Puerto Rico,18.0534372,-66.5075079
Morovis Municipio, Puerto Rico,18.325785,-66.4065592
Mayagüez Municipio, Puerto Rico,18.2013452,-67.1451549
Santa Isabel Municipio, Puerto Rico,17.9656798,-66.40416239999999
Trujillo Alto Municipio, Puerto Rico,18.3546719,-66.0073876
Guayama Municipio, Puerto Rico,17.9841328,-66.1137767
Moca Municipio, Puerto Rico,18.3946688,-67.1132356
Culebra Municipio, Puerto Rico,18.310394,-65.3030705
Gurabo Municipio, Puerto Rico,18.2543987,-65.9729421
Salinas Municipio, Puerto Rico,18.0022251,-66.2605176
Barceloneta Municipio, Puerto Rico,18.4505017,-66.5385055
Loíza Municipio, Puerto Rico,18.4298388,-65.87745
Yauco Municipio, Puerto Rico,18.0342186,-66.8492766
Guaynabo Municipio, Puerto Rico,18.3615548,-66.11106819999999
Aguadilla Municipio, Puerto Rico,18.4274454,-67.1540698
Cabo Rojo Municipio, Puerto Rico,18.0875347,-67.14699639999999
Fajardo Municipio, Puerto Rico,18.3257869,-65.6523838
Las Marías Municipio, Puerto Rico,18.2547776,-66.9853978
Patillas Municipio, Puerto Rico,18.0063544,-66.0157194
Rincón Municipio, Puerto Rico,18.3402164,-67.2500174
Aguas Buenas Municipio, Puerto Rico,18.2568989,-66.1029442
Bayamón Municipio, Puerto Rico,18.389396,-66.1653224
Carolina Municipio, Puerto Rico,18.3803255,-65.9626213
Cayey Municipio, Puerto Rico,18.1119051,-66.166
Monroe County, Alabama,43.2841246,-77.7452081
Lawrence County, Alabama,40.957855,-80.365865
Lee County, Alabama,26.6630286,-81.9534815
Marion County, Alabama,44.8446393,-122.5927411
Pickens County, Alabama,34.9046217,-82.6483442
Sumter County, Alabama,28.6747526,-82.08429009999999
Jefferson County, Alabama,39.5800298,-105.2662931
Choctaw County, Alabama,33.9851472,-95.51973939999999
Franklin County, Alabama,40.0154745,-82.99316069999999
Marengo County, Alabama,32.2459085,-87.77633329999999
Russell County, Alabama,32.3552497,-85.1894045
Cherokee County, Alabama,34.2514526,-84.4802606
Covington County, Alabama,31.3066438,-86.49965460000001
Crenshaw County, Alabama,31.6671872,-86.3376761
Dallas County, Alabama,32.8024682,-96.83509989999999
Lauderdale County, Alabama,34.8840876,-87.658113
Lowndes County, Alabama,30.8600022,-83.2934086
Macon County, Alabama,35.1197519,-83.33618799999999
Limestone County, Alabama,34.78000720000001,-86.9423801
Shelby County, Alabama,35.1268552,-89.9253233
St. Clair County, Alabama,43.016179,-82.6483442
Winston County, Alabama,34.1690087,-87.3413599
Baldwin County, Alabama,30.6010744,-87.77633329999999
Cullman County, Alabama,34.2011537,-86.8220341
Elmore County, Alabama,32.5647083,-86.0121573
Houston County, Alabama,32.4219655,-83.63484299999999
Jackson County, Alabama,38.9914998,-94.315422
Talladega County, Alabama,33.4231716,-86.1344697
Tuscaloosa County, Alabama,33.3227653,-87.460397
Washington County, Alabama,45.5469616,-123.1386021
Clay County, Alabama,29.9943564,-81.77870209999999
Coffee County, Alabama,35.4576849,-86.05296039999999
Morgan County, Alabama,41.0576176,-111.6183755
Pike County, Alabama,41.3361875,-75.06111469999999
Chilton County, Alabama,32.944392,-86.6611083
Colbert County, Alabama,34.7117567,-87.89424509999999
Coosa County, Alabama,32.8897772,-86.2196937
Dale County, Alabama,31.4645298,-85.684578
Hale County, Alabama,34.1064941,-101.8891721
Etowah County, Alabama,34.0455341,-86.05296039999999
DeKalb County, Alabama,33.7956441,-84.2278796
Escambia County, Alabama,30.6389408,-87.3413599
Lamar County, Alabama,33.75694,-95.6457951
Randolph County, Alabama,35.7449531,-79.8296743
Butler County, Alabama,39.440463,-84.5222189
Mobile County, Alabama,30.6082227,-88.24611829999999
Conecuh County, Alabama,31.501571,-86.9824288
Perry County, Alabama,40.371376,-77.2405153
Walker County, Alabama,30.6815394,-95.6457951
Cleburne County, Alabama,35.4605769,-92.0665197
Greene County, Alabama,39.697399,-83.8897057
Barbour County, Alabama,31.8172896,-85.35496499999999
Bibb County, Alabama,32.7865735,-83.7199136
Bullock County, Alabama,32.0573536,-85.7256372
Calhoun County, Alabama,42.2073905,-85.02334599999999
Chambers County, Alabama,29.7524956,-94.6863782
Clarke County, Alabama,33.9519347,-83.357567
Fayette County, Alabama,33.4502206,-84.4802606
Montgomery County, Alabama,39.1547426,-77.2405153
Marshall County, Alabama,34.3652297,-86.3376761
Blount County, Alabama,35.6710541,-83.8473015
Henry County, Alabama,33.4347963,-84.14351359999999
Madison County, Alabama,38.9041402,-89.9253233
Autauga County, Alabama,32.5791817,-86.49965460000001
Tallapoosa County, Alabama,32.9201244,-85.84862360000001
Geneva County, Alabama,31.0990456,-85.684578
Wilcox County, Alabama,32.0105439,-87.3413599
Kodiak Island Borough, Alaska,57.53693430000001,-153.2659352
Denali Borough, Alaska,63.82571729999999,-149.7317835
Valdez-Cordova Census Area, Alaska,61.4787707,-144.1147195
Kenai Peninsula Borough, Alaska,60.0858486,-151.382264
Aleutians West Census Area, Alaska,52.3232697,-174.1596072
Bristol Bay Borough, Alaska,58.7578504,-156.7792687
Northwest Arctic Borough, Alaska,67.2872981,-160.0342624
Bethel Census Area, Alaska,61.09344600000001,-160.8640773
North Slope Borough, Alaska,69.05787579999999,-152.8628274
Sitka City and Borough, Alaska,57.0530556,-135.33
Fairbanks North Star Borough, Alaska,64.9526102,-146.4744154
Ketchikan Gateway Borough, Alaska,55.5103345,-131.389286
Matanuska-Susitna Borough, Alaska,62.2599347,-150.1729153
Yakutat City and Borough, Alaska,59.5469878,-139.7272808
Nome Census Area, Alaska,64.8329974,-164.256602
Dillingham Census Area, Alaska,59.80677919999999,-157.7242585
Haines Borough, Alaska,59.1392237,-135.0
Juneau City and Borough, Alaska,58.3019444,-134.4197221
Lake and Peninsula Borough, Alaska,58.0458356,-156.5982286
Southeast Fairbanks Census Area, Alaska,63.9603869,-143.6296999
Yukon-Koyukuk Census Area, Alaska,65.8443666,-153.4302993
Anchorage Municipality, Alaska,61.2180556,-149.9002778
Aleutians East Borough, Alaska,55.53880059999999,-161.8988535
Prince of Wales-Hyder Census Area, Alaska,55.3242244,-132.6044581
Wrangell City and Borough, Alaska,56.4708333,-132.3766666
Hoonah-Angoon Census Area, Alaska,58.31765049999999,-136.0390896
Skagway Municipality, Alaska,59.45540250000001,-135.315279
Petersburg Borough, Alaska,56.8125,-132.9555556
Kusilvak Census Area, Alaska,62.1458336,-162.891919
Pima County, Arizona,32.057499,-111.6660725
Maricopa County, Arizona,33.2917968,-112.4291464
Gila County, Arizona,33.6370567,-110.5215459
Graham County, Arizona,33.076805,-109.7591675
Santa Cruz County, Arizona,37.0453988,-121.9579578
Cochise County, Arizona,31.82845799999999,-109.949686
La Paz County, Arizona,34.0061091,-113.9536466
Mohave County, Arizona,35.2143346,-113.7632828
Apache County, Arizona,35.5313224,-109.3783206
Coconino County, Arizona,35.6647545,-111.4752851
Yavapai County, Arizona,34.6463981,-112.4291464
Yuma County, Arizona,32.6527533,-113.9536466
Greenlee County, Arizona,33.2405598,-109.2831531
Navajo County, Arizona,35.4019765,-110.1402594
Pinal County, Arizona,32.8162061,-111.2845025
White County, Arkansas,34.6567728,-83.7199136
Nevada County, Arkansas,39.1346666,-121.1710389
St. Francis County, Arkansas,34.9926533,-90.7152749
Pulaski County, Arkansas,34.75386150000001,-92.2236667
Clay County, Arkansas,29.9943564,-81.77870209999999
Cross County, Arkansas,40.9276239,-73.8558481
Dallas County, Arkansas,32.8024682,-96.83509989999999
Drew County, Arkansas,33.5156463,-91.7538817
Columbia County, Arkansas,33.5098514,-82.25832969999999
Randolph County, Arkansas,35.7449531,-79.8296743
Saline County, Arkansas,34.5708215,-92.539603
Van Buren County, Arkansas,42.2459665,-86.0121573
Boone County, Arkansas,38.9940572,-84.7315563
Izard County, Arkansas,36.1610924,-91.9099238
Independence County, Arkansas,35.8174139,-91.5983959
Lincoln County, Arkansas,35.4637028,-81.20781640000001
Logan County, Arkansas,40.38996789999999,-83.8473015
Grant County, Arkansas,47.1981147,-119.3732456
Crittenden County, Arkansas,35.3021443,-90.37483540000001
Franklin County, Arkansas,40.0154745,-82.99316069999999
Faulkner County, Arkansas,35.1035858,-92.38136209999999
Pike County, Arkansas,41.3361875,-75.06111469999999
Jefferson County, Arkansas,39.5800298,-105.2662931
Marion County, Arkansas,44.8446393,-122.5927411
Montgomery County, Arkansas,39.1547426,-77.2405153
Scott County, Arkansas,44.6834072,-93.54079089999999
Searcy County, Arkansas,35.9721,-92.6983868
Sebastian County, Arkansas,35.2260397,-94.315422
Crawford County, Arkansas,41.6661391,-80.2767327
Benton County, Arkansas,46.3166362,-119.5021582
Chicot County, Arkansas,33.3419551,-91.28910359999999
Hot Spring County, Arkansas,34.3393795,-92.97755579999999
Johnson County, Arkansas,38.845412,-94.8520636
Lee County, Arkansas,26.6630286,-81.9534815
Madison County, Arkansas,38.9041402,-89.9253233
Desha County, Arkansas,33.8773585,-91.44346900000001
Fulton County, Arkansas,33.8033965,-84.3962535
Howard County, Arkansas,39.2873463,-76.964306
Garland County, Arkansas,34.5559285,-93.17796589999999
Mississippi County, Arkansas,35.8279728,-90.0746767
Pope County, Arkansas,35.440627,-93.0175712
Prairie County, Arkansas,34.7636336,-91.5983959
Union County, Arkansas,34.9338651,-80.54384499999999
Woodruff County, Arkansas,35.1215846,-91.13530200000001
Cleburne County, Arkansas,35.4605769,-92.0665197
Cleveland County, Arkansas,35.361354,-81.6035062
Jackson County, Arkansas,38.9914998,-94.315422
Hempstead County, Arkansas,33.6530112,-93.66232389999999
Sharp County, Arkansas,36.16759740000001,-91.44346900000001
Stone County, Arkansas,36.7748882,-93.4599326
Washington County, Arkansas,45.5469616,-123.1386021
Greene County, Arkansas,39.697399,-83.8897057
Baxter County, Arkansas,36.3261815,-92.38136209999999
Ashley County, Arkansas,33.1565939,-91.7538817
Craighead County, Arkansas,35.8260959,-90.6773046
Lafayette County, Arkansas,39.0031288,-93.9878427
Perry County, Arkansas,40.371376,-77.2405153
Yell County, Arkansas,35.0810824,-93.33889169999999
Phillips County, Arkansas,34.4611206,-90.86751339999999
Poinsett County, Arkansas,35.6078586,-90.6393702
Sevier County, Arkansas,35.8271682,-83.5070203
Calhoun County, Arkansas,42.2073905,-85.02334599999999
Clark County, Arkansas,36.0795613,-115.094045
Bradley County, Arkansas,35.1937778,-84.8567932
Lawrence County, Arkansas,40.957855,-80.365865
Monroe County, Arkansas,43.2841246,-77.7452081
Polk County, Arkansas,27.8617347,-81.6911559
Conway County, Arkansas,35.2727492,-92.6983868
Ouachita County, Arkansas,33.5828512,-92.9375739
Newton County, Arkansas,33.5544296,-83.8473015
Arkansas County, Arkansas,34.2354138,-91.28910359999999
Little River County, Arkansas,33.6808926,-94.19234000000002
Lonoke County, Arkansas,34.7591647,-91.9099238
Carroll County, Arkansas,39.5423418,-77.0564464
Miller County, Arkansas,33.3335556,-93.86553029999999
Modoc County, California,41.4565165,-120.629366
Merced County, California,37.2009788,-120.7120023
Lake County, California,42.3689363,-87.8271534
Mariposa County, California,37.4893626,-119.9679294
Yuba County, California,39.2547027,-121.3998995
Contra Costa County, California,37.8534093,-121.9017954
Inyo County, California,36.3091865,-117.5495846
Lassen County, California,40.5394389,-120.7120023
Stanislaus County, California,37.5090711,-120.9876321
Santa Barbara County, California,34.4208321,-119.6982057
Sonoma County, California,38.5779555,-122.9888319
Tehama County, California,40.0982197,-122.174605
Imperial County, California,33.0113694,-115.4733554
Mono County, California,37.9218608,-118.9528645
San Benito County, California,36.5760883,-120.9876321
Alameda County, California,37.6016892,-121.7195459
Sacramento County, California,38.47467,-121.3541631
El Dorado County, California,38.74263759999999,-120.4357631
Napa County, California,38.5024689,-122.2653887
San Diego County, California,32.7157305,-117.1610966
Monterey County, California,36.3136201,-121.3541631
San Francisco County, California,37.7749295,-122.4194155
Sierra County, California,39.5532845,-120.2512728
Tulare County, California,36.1341739,-118.8596804
Yolo County, California,38.7646021,-121.9017954
Humboldt County, California,40.7450055,-123.8695086
Nevada County, California,39.1346666,-121.1710389
Alpine County, California,38.5940736,-119.8815203
Madera County, California,37.251926,-119.6962677
Mendocino County, California,39.5500194,-123.438353
Santa Cruz County, California,37.0453988,-121.9579578
Trinity County, California,40.6329485,-123.0622553
Los Angeles County, California,34.0522265,-118.2436596
Riverside County, California,33.9532966,-117.3961192
San Bernardino County, California,34.9592083,-116.419389
Santa Clara County, California,37.3336581,-121.8907041
Marin County, California,38.083403,-122.7633036
Placer County, California,39.0915751,-120.8039474
Siskiyou County, California,41.7743261,-122.5770126
Shasta County, California,40.7908864,-121.8474493
Solano County, California,38.3104969,-121.9017954
Del Norte County, California,41.7076287,-123.9659708
Colusa County, California,39.1040645,-122.2653887
Glenn County, California,39.6437813,-122.4467238
Butte County, California,39.6253952,-121.5370003
Kings County, California,36.0988489,-119.8815203
Plumas County, California,39.99268319999999,-120.8039474
San Luis Obispo County, California,35.3102296,-120.4357631
Fresno County, California,36.9858984,-119.2320784
Kern County, California,35.4937274,-118.8596804
Orange County, California,33.7174708,-117.8311428
Ventura County, California,34.3704884,-119.1390642
Calaveras County, California,38.1960477,-120.6805037
Sutter County, California,39.0219764,-121.6739371
San Mateo County, California,37.4337342,-122.4014193
Tuolumne County, California,38.029655,-119.9740534
San Joaquin County, California,37.9175935,-121.1710389
Amador County, California,38.3488921,-120.7740931
Costilla County, Colorado,37.2049596,-105.5005483
Adams County, Colorado,39.8398269,-104.1930918
Conejos County, Colorado,37.2689711,-106.2522143
Custer County, Colorado,38.0615578,-105.3131185
Douglas County, Colorado,39.2587106,-104.9388853
Eagle County, Colorado,39.576406,-106.7234639
Lake County, Colorado,42.3689363,-87.8271534
La Plata County, Colorado,37.2125857,-107.763621
Moffat County, Colorado,40.6138379,-108.2377519
Pitkin County, Colorado,39.159101,-106.8178377
Rio Grande County, Colorado,37.5749508,-106.4405872
Cheyenne County, Colorado,41.2509264,-103.0817903
Bent County, Colorado,38.0036339,-103.0817903
Crowley County, Colorado,38.2498631,-103.8216261
Dolores County, Colorado,37.7530272,-108.5225709
San Juan County, Colorado,48.61180350000001,-122.9602621
Jackson County, Colorado,38.9914998,-94.315422
Larimer County, Colorado,40.6955572,-105.5943388
Logan County, Colorado,40.38996789999999,-83.8473015
Montezuma County, Colorado,37.3257517,-108.6175626
San Miguel County, Colorado,37.9781237,-108.1428669
Teller County, Colorado,38.86115789999999,-105.1726816
Yuma County, Colorado,32.6527533,-113.9536466
Boulder County, Colorado,40.1512114,-105.5005483
Elbert County, Colorado,39.35370040000001,-104.1930918
Las Animas County, Colorado,37.2994909,-104.1001326
Lincoln County, Colorado,35.4637028,-81.20781640000001
Clear Creek County, Colorado,39.6904464,-105.6412527
Routt County, Colorado,40.4771623,-107.1011931
Summit County, Colorado,41.0918991,-81.5596427
Alamosa County, Colorado,37.654039,-105.876004
Delta County, Colorado,38.8531357,-107.763621
Fremont County, Colorado,38.5306514,-105.5005483
Pueblo County, Colorado,38.2528534,-104.4723301
Montrose County, Colorado,38.468304,-108.1428669
Morgan County, Colorado,41.0576176,-111.6183755
Park County, Colorado,39.0897928,-105.5943388
Saguache County, Colorado,38.0019623,-106.3463791
Mesa County, Colorado,38.9585381,-108.6175626
Prowers County, Colorado,37.84337560000001,-102.2547919
Hinsdale County, Colorado,37.9316309,-107.3848831
El Paso County, Colorado,31.8039824,-106.2051484
Washington County, Colorado,45.5469616,-123.1386021
Grand County, Colorado,40.0727382,-106.0640179
Arapahoe County, Colorado,39.62031,-104.332644
Otero County, Colorado,32.6341716,-105.5943388
Phillips County, Colorado,34.4611206,-90.86751339999999
Archuleta County, Colorado,37.1604318,-107.0067031
Denver County, Colorado,39.7392358,-104.990251
Kiowa County, Colorado,37.52851649999999,-99.2785583
Huerfano County, Colorado,37.6125984,-104.9388853
Baca County, Colorado,37.394731,-102.5298028
Chaffee County, Colorado,38.7536679,-106.2522143
Gilpin County, Colorado,39.8770159,-105.4536718
Kit Carson County, Colorado,39.3844507,-102.5298028
Garfield County, Colorado,39.6584775,-107.763621
Gunnison County, Colorado,38.6437083,-107.0067031
Jefferson County, Colorado,39.5800298,-105.2662931
Mineral County, Colorado,37.6583677,-107.0067031
Ouray County, Colorado,38.2016133,-107.763621
Rio Blanco County, Colorado,39.9814297,-108.2377519
Sedgwick County, Colorado,37.6537367,-97.5247243
Weld County, Colorado,40.3920718,-104.7158226
New Haven County, Connecticut,41.3266911,-72.8042797
Litchfield County, Connecticut,41.7866294,-73.2765361
Hartford County, Connecticut,41.7924343,-72.8042797
Windham County, Connecticut,41.8275622,-72.0468164
New London County, Connecticut,41.5185189,-72.0468164
Middlesex County, Connecticut,40.4111363,-74.35874729999999
Tolland County, Connecticut,41.8418987,-72.37846789999999
Fairfield County, Connecticut,39.830506,-82.6483442
Santa Rosa County, Florida,30.7689907,-86.9824288
Broomfield County, Colorado,39.9205411,-105.0866504
New Castle County, Delaware,39.5392979,-75.667356
Sussex County, Delaware,38.65308410000001,-75.4344727
Kent County, Delaware,43.0097027,-85.52002399999999
Manatee County, Florida,27.4799195,-82.34518899999999
Citrus County, Florida,28.8848842,-82.5185837
Levy County, Florida,29.3178545,-82.82097399999999
Baker County, Florida,44.7652304,-117.67692
Volusia County, Florida,29.0279842,-81.0754657
Leon County, Florida,30.4906177,-84.1857115
Broward County, Florida,26.190096,-80.365865
Madison County, Florida,38.9041402,-89.9253233
Monroe County, Florida,43.2841246,-77.7452081
Escambia County, Florida,30.6389408,-87.3413599
Hernando County, Florida,28.5578826,-82.4752757
Hillsborough County, Florida,27.9903597,-82.3017728
Okaloosa County, Florida,30.57734009999999,-86.6611083
Taylor County, Florida,32.2455088,-99.8124935
Wakulla County, Florida,30.1301689,-84.3542049
Washington County, Florida,45.5469616,-123.1386021
Duval County, Florida,30.3500511,-81.6035062
Bradford County, Florida,29.97238179999999,-82.1713632
Brevard County, Florida,28.263933,-80.7214417
Clay County, Florida,29.9943564,-81.77870209999999
Lafayette County, Florida,39.0031288,-93.9878427
Lake County, Florida,42.3689363,-87.8271534
Nassau County, Florida,40.6546145,-73.55941279999999
Pinellas County, Florida,27.876394,-82.7778579
Polk County, Florida,27.8617347,-81.6911559
St. Lucie County, Florida,27.3225563,-80.54384499999999
Glades County, Florida,26.984415,-81.0754657
Hendry County, Florida,26.6105319,-81.0754657
Indian River County, Florida,27.6947732,-80.54384499999999
Jackson County, Florida,38.9914998,-94.315422
Palm Beach County, Florida,26.6514503,-80.2767327
St. Johns County, Florida,29.9719419,-81.42789839999999
Seminole County, Florida,28.7131688,-81.20781640000001
Miami-Dade County, Florida,25.5516034,-80.6326916
Bay County, Florida,30.1805306,-85.684578
Flagler County, Florida,29.4086072,-81.2518833
Franklin County, Florida,40.0154745,-82.99316069999999
Gulf County, Florida,29.8001623,-85.35496499999999
Hamilton County, Florida,39.2355447,-84.56414699999999
Liberty County, Florida,30.1633593,-94.81059549999999
Osceola County, Florida,28.1019838,-81.0754657
Sumter County, Florida,28.6747526,-82.08429009999999
Walton County, Florida,30.56401989999999,-86.17517590000001
Gadsden County, Florida,30.5562947,-84.6479124
Holmes County, Florida,40.5540928,-81.909826
Jefferson County, Florida,39.5800298,-105.2662931
Lee County, Florida,26.6630286,-81.9534815
Marion County, Florida,44.8446393,-122.5927411
Hardee County, Florida,27.4501733,-81.8224362
Collier County, Florida,26.069985,-81.42789839999999
Okeechobee County, Florida,27.3462015,-80.89865019999999
Orange County, Florida,33.7174708,-117.8311428
Alachua County, Florida,29.6579549,-82.3017728
District of Columbia, District of Columbia,38.9071923,-77.0368707
Pasco County, Florida,28.3232418,-82.4319405
Gilchrist County, Florida,29.6871128,-82.82097399999999
Highlands County, Florida,27.3400286,-81.34002679999999
Suwannee County, Florida,30.24850959999999,-82.99316069999999
DeSoto County, Florida,34.9065453,-89.9626799
Calhoun County, Florida,42.2073905,-85.02334599999999
Charlotte County, Florida,26.8946009,-81.909826
Columbia County, Florida,33.5098514,-82.25832969999999
Dixie County, Florida,29.5207227,-83.1649001
Martin County, Florida,27.0804935,-80.4103957
Putnam County, Florida,41.4351069,-73.7948516
Sarasota County, Florida,27.1995986,-82.34518899999999
Union County, Florida,34.9338651,-80.54384499999999
Clay County, Georgia,29.9943564,-81.77870209999999
Echols County, Georgia,30.7503289,-82.95015579999999
Glynn County, Georgia,31.2624169,-81.6035062
DeKalb County, Georgia,33.7956441,-84.2278796
Haralson County, Georgia,33.8021715,-85.1900684
Lincoln County, Georgia,35.4637028,-81.20781640000001
Jackson County, Georgia,38.9914998,-94.315422
Jefferson County, Georgia,39.5800298,-105.2662931
Jones County, Georgia,31.5343241,-89.1705998
Murray County, Georgia,34.7928029,-84.7315563
Muscogee County, Georgia,32.4794133,-84.8984775
Pulaski County, Georgia,34.75386150000001,-92.2236667
Rabun County, Georgia,34.9027286,-83.3789389
Stewart County, Georgia,36.5023236,-87.77633329999999
Towns County, Georgia,34.9208214,-83.7199136
Treutlen County, Georgia,32.3870233,-82.5834947
Turner County, Georgia,31.6976531,-83.63484299999999
Irwin County, Georgia,31.5893221,-83.2934086
Atkinson County, Georgia,31.2932161,-82.8640623
Appling County, Georgia,31.712238,-82.25832969999999
Bacon County, Georgia,31.5412085,-82.4319405
Brantley County, Georgia,31.1510963,-81.9971108
Whitfield County, Georgia,34.8033566,-84.981754
Calhoun County, Georgia,42.2073905,-85.02334599999999
Macon County, Georgia,35.1197519,-83.33618799999999
Troup County, Georgia,33.0698575,-85.02334599999999
Bibb County, Georgia,32.7865735,-83.7199136
Harris County, Georgia,29.7751825,-95.3102505
Marion County, Georgia,44.8446393,-122.5927411
Schley County, Georgia,32.2736136,-84.3121264
Worth County, Georgia,43.3580686,-93.33889169999999
Bleckley County, Georgia,32.4087854,-83.3789389
Dooly County, Georgia,32.1593447,-83.804868
Evans County, Georgia,32.1427011,-81.909826
Franklin County, Georgia,40.0154745,-82.99316069999999
Webster County, Georgia,42.3974963,-94.15137639999999
Effingham County, Georgia,32.378148,-81.38393260000001
Lamar County, Georgia,33.75694,-95.6457951
Glascock County, Georgia,33.2422994,-82.6267345
Emanuel County, Georgia,32.5726629,-82.3017728
Quitman County, Georgia,31.8485969,-84.981754
Chatham County, Georgia,31.9994194,-81.1196075
Liberty County, Georgia,30.1633593,-94.81059549999999
Jasper County, Georgia,32.491436,-81.0754657
Johnson County, Georgia,38.845412,-94.8520636
Lanier County, Georgia,31.02912689999999,-83.03613759999999
Madison County, Georgia,38.9041402,-89.9253233
Mitchell County, Georgia,36.0277763,-82.1496049
Seminole County, Georgia,28.7131688,-81.20781640000001
Tift County, Georgia,31.4205597,-83.54965659999999
Twiggs County, Georgia,32.68356,-83.46435509999999
Polk County, Georgia,27.8617347,-81.6911559
Talbot County, Georgia,38.7803973,-76.1319953
Taylor County, Georgia,32.2455088,-99.8124935
Terrell County, Georgia,30.2348611,-102.1632718
Thomas County, Georgia,30.8417409,-83.8473015
Toombs County, Georgia,32.0795072,-82.34518899999999
Wilkinson County, Georgia,32.8024682,-83.1649001
Ben Hill County, Georgia,31.7664035,-83.2077645
Burke County, Georgia,35.7616931,-81.73494199999999
Catoosa County, Georgia,34.8981727,-85.14793639999999
Chattahoochee County, Georgia,32.2952274,-84.8150781
Chattooga County, Georgia,34.4632661,-85.31362179999999
Columbia County, Georgia,33.5098514,-82.25832969999999
Decatur County, Georgia,39.3176186,-85.52002399999999
Floyd County, Georgia,34.2828967,-85.2308414
Forsyth County, Georgia,34.2358502,-84.14351359999999
Habersham County, Georgia,34.6478893,-83.54965659999999
Hart County, Georgia,34.3500039,-82.95015579999999
Lowndes County, Georgia,30.8600022,-83.2934086
McIntosh County, Georgia,31.4748147,-81.38393260000001
Meriwether County, Georgia,33.0561282,-84.68974949999999
Monroe County, Georgia,43.2841246,-77.7452081
Putnam County, Georgia,41.4351069,-73.7948516
Sumter County, Georgia,28.6747526,-82.08429009999999
Taliaferro County, Georgia,33.56978780000001,-82.8855961
Warren County, Georgia,39.4241422,-84.1857115
Baker County, Georgia,44.7652304,-117.67692
Bryan County, Georgia,32.0236584,-81.47183869999999
Butts County, Georgia,33.2691443,-83.9532571
Candler County, Georgia,32.4241804,-82.08429009999999
Camden County, Georgia,39.8592439,-75.0143824
Carroll County, Georgia,39.5423418,-77.0564464
Crawford County, Georgia,41.6661391,-80.2767327
Early County, Georgia,31.3901106,-84.8984775
Crisp County, Georgia,31.8875724,-83.804868
Coffee County, Georgia,35.4576849,-86.05296039999999
Coweta County, Georgia,33.3716708,-84.7315563
Cobb County, Georgia,33.8999297,-84.56414699999999
Gilmer County, Georgia,34.6935359,-84.4802606
Dade County, Georgia,25.5516034,-80.6326916
Walton County, Georgia,30.56401989999999,-86.17517590000001
Wilkes County, Georgia,36.202858,-81.2518833
Brooks County, Georgia,27.0273057,-98.2212979
Dodge County, Georgia,43.3994215,-88.7108964
Gordon County, Georgia,34.4891699,-84.8567932
Elbert County, Georgia,39.35370040000001,-104.1930918
Cherokee County, Georgia,34.2514526,-84.4802606
Fayette County, Georgia,33.4502206,-84.4802606
Jenkins County, Georgia,32.7781246,-81.9971108
Lee County, Georgia,26.6630286,-81.9534815
Newton County, Georgia,33.5544296,-83.8473015
Pickens County, Georgia,34.9046217,-82.6483442
Greene County, Georgia,39.697399,-83.8897057
Colquitt County, Georgia,31.2072856,-83.8473015
Cook County, Georgia,41.7376587,-87.697554
Dawson County, Georgia,34.412912,-84.14351359999999
Hancock County, Georgia,39.8249915,-85.84862360000001
Clayton County, Georgia,33.5571944,-84.375233
Fulton County, Georgia,33.8033965,-84.3962535
Hall County, Georgia,34.30778,-83.804868
Lumpkin County, Georgia,34.5813972,-83.9744262
McDuffie County, Georgia,33.5258626,-82.5185837
Miller County, Georgia,33.3335556,-93.86553029999999
Morgan County, Georgia,41.0576176,-111.6183755
Heard County, Georgia,33.2990406,-85.14793639999999
Oconee County, Georgia,33.8231988,-83.4430118
Dougherty County, Georgia,31.5439375,-84.2278796
Fannin County, Georgia,33.5544296,-96.15269850000001
Henry County, Georgia,33.4347963,-84.14351359999999
Houston County, Georgia,32.4219655,-83.63484299999999
Laurens County, Georgia,34.5203466,-82.12783999999999
Long County, Georgia,31.7755541,-81.8224362
Spalding County, Georgia,33.2636732,-84.3121264
Stephens County, Georgia,34.5458998,-83.2934086
Telfair County, Georgia,31.8907647,-82.99316069999999
Union County, Georgia,34.9338651,-80.54384499999999
Upson County, Georgia,32.9047684,-84.3121264
Washington County, Georgia,45.5469616,-123.1386021
White County, Georgia,34.6567728,-83.7199136
Peach County, Georgia,32.5892926,-83.8260884
Paulding County, Georgia,33.9142037,-84.8984775
Pierce County, Georgia,47.0675877,-122.1295269
Pike County, Georgia,41.3361875,-75.06111469999999
Richmond County, Georgia,33.3205339,-82.08429009999999
Screven County, Georgia,32.7074673,-81.6035062
Tattnall County, Georgia,32.0634576,-82.08429009999999
Berrien County, Georgia,42.0320742,-86.7416374
Walker County, Georgia,30.6815394,-95.6457951
Gwinnett County, Georgia,33.9190653,-84.01674229999999
Barrow County, Georgia,34.0142667,-83.6986568
Charlton County, Georgia,30.7917361,-82.08429009999999
Clinch County, Georgia,30.9716985,-82.82097399999999
Bartow County, Georgia,34.2660473,-84.8150781
Douglas County, Georgia,39.2587106,-104.9388853
Grady County, Georgia,35.0472662,-97.87216
Jeff Davis County, Georgia,30.750805,-104.1930918
Montgomery County, Georgia,39.1547426,-77.2405153
Oglethorpe County, Georgia,33.9119731,-83.03613759999999
Randolph County, Georgia,35.7449531,-79.8296743
Rockdale County, Georgia,33.6752492,-84.0378894
Ware County, Georgia,31.134411,-82.4752757
Wayne County, Georgia,42.2790746,-83.33618799999999
Wheeler County, Georgia,44.6659766,-120.0829624
Wilcox County, Georgia,32.0105439,-87.3413599
Baldwin County, Georgia,30.6010744,-87.77633329999999
Banks County, Georgia,34.378542,-83.46435509999999
Bulloch County, Georgia,32.3595678,-81.77870209999999
Clarke County, Georgia,33.9519347,-83.357567
Hawaii County, Hawaii,19.5429151,-155.6658568
Honolulu County, Hawaii,21.3069857,-157.8584319
Maui County, Hawaii,20.7983626,-156.3319253
Kauai County, Hawaii,21.9661076,-159.5737912
Kalawao County, Hawaii,21.2273942,-156.9749731
Oneida County, Idaho,43.2371798,-75.4344727
Cassia County, Idaho,42.358036,-113.5728501
Gem County, Idaho,44.0324936,-116.3589245
Lincoln County, Idaho,35.4637028,-81.20781640000001
Valley County, Idaho,44.9204669,-115.7926381
Adams County, Idaho,39.8398269,-104.1930918
Franklin County, Idaho,40.0154745,-82.99316069999999
Nez Perce County, Idaho,46.41818139999999,-116.622876
Jerome County, Idaho,42.712818,-114.3287857
Kootenai County, Idaho,47.7568407,-116.6222056
Lewis County, Idaho,46.6195461,-122.4554639
Minidoka County, Idaho,42.8409971,-113.5808126
Twin Falls County, Idaho,42.335252,-114.6758916
Owyhee County, Idaho,42.6827359,-116.0622892
Blaine County, Idaho,43.4743428,-113.9664446
Boise County, Idaho,43.9604787,-115.8563106
Boundary County, Idaho,48.7987617,-116.5627065
Butte County, Idaho,39.6253952,-121.5370003
Caribou County, Idaho,42.75386839999999,-111.6660725
Gooding County, Idaho,42.9180557,-114.7494346
Ada County, Idaho,43.478767,-116.2420304
Bannock County, Idaho,42.5836362,-112.1430215
Bear Lake County, Idaho,42.228222,-111.2845025
Bingham County, Idaho,43.2112303,-112.3624146
Bonneville County, Idaho,43.4508683,-111.5455289
Camas County, Idaho,43.5093688,-114.8243665
Canyon County, Idaho,43.67795810000001,-116.6865435
Clearwater County, Idaho,47.72007869999999,-95.3105661
Jefferson County, Idaho,39.5800298,-105.2662931
Latah County, Idaho,46.7360364,-116.6764195
Custer County, Idaho,38.0615578,-105.3131185
Lemhi County, Idaho,45.0364592,-113.9230554
Payette County, Idaho,44.02051850000001,-116.7205398
Benewah County, Idaho,47.2437836,-116.6499425
Bonner County, Idaho,48.2751783,-116.5931483
Clark County, Idaho,36.0795613,-115.094045
Elmore County, Idaho,32.5647083,-86.0121573
Fremont County, Idaho,38.5306514,-105.5005483
Madison County, Idaho,38.9041402,-89.9253233
Shoshone County, Idaho,47.1746948,-115.9104676
Idaho County, Idaho,45.9019541,-115.7237433
Teton County, Idaho,43.853632,-110.6314491
Power County, Idaho,42.7528492,-112.7684521
Washington County, Idaho,45.5469616,-123.1386021
Hancock County, Illinois,39.8249915,-85.84862360000001
Madison County, Illinois,38.9041402,-89.9253233
Grundy County, Illinois,41.3500531,-88.4016041
Kankakee County, Illinois,41.1790977,-87.77633329999999
Mercer County, Illinois,40.3028533,-74.7337069
DuPage County, Illinois,41.8243831,-88.0900762
Sangamon County, Illinois,39.7337353,-89.62516459999999
Alexander County, Illinois,35.8974199,-81.20781640000001
Menard County, Illinois,30.9802428,-99.8124935
Randolph County, Illinois,35.7449531,-79.8296743
Morgan County, Illinois,41.0576176,-111.6183755
Cook County, Illinois,41.7376587,-87.697554
Ogle County, Illinois,41.9969811,-89.3226954
Macon County, Illinois,35.1197519,-83.33618799999999
Stephenson County, Illinois,42.31448899999999,-89.62516459999999
Wayne County, Illinois,42.2790746,-83.33618799999999
White County, Illinois,34.6567728,-83.7199136
Woodford County, Illinois,40.7128889,-89.1705998
Franklin County, Illinois,40.0154745,-82.99316069999999
Henderson County, Illinois,35.3725873,-82.4319405
McDonough County, Illinois,40.3885122,-90.6773046
McHenry County, Illinois,42.3039993,-88.4016041
McLean County, Illinois,40.5478429,-88.86469799999999
Moultrie County, Illinois,39.6020543,-88.59517509999999
Perry County, Illinois,40.371376,-77.2405153
Pike County, Illinois,41.3361875,-75.06111469999999
Pope County, Illinois,35.440627,-93.0175712
Rock Island County, Illinois,41.39982089999999,-90.563609
St. Clair County, Illinois,43.016179,-82.6483442
Shelby County, Illinois,35.1268552,-89.9253233
Wabash County, Illinois,40.8033875,-85.84862360000001
Champaign County, Illinois,40.2138865,-88.24611829999999
Calhoun County, Illinois,42.2073905,-85.02334599999999
Cumberland County, Illinois,34.9542604,-78.74762079999999
Ford County, Illinois,37.6540069,-99.8124935
Jo Daviess County, Illinois,42.3148804,-90.2244662
Kane County, Illinois,41.987884,-88.4016041
Kendall County, Illinois,41.5507043,-88.4403883
Lawrence County, Illinois,40.957855,-80.365865
Brown County, Illinois,44.45616740000001,-87.9334803
Marion County, Illinois,44.8446393,-122.5927411
Marshall County, Illinois,34.3652297,-86.3376761
Mason County, Illinois,47.4251146,-123.1951376
Iroquois County, Illinois,40.7740275,-87.697554
Christian County, Illinois,36.99764400000001,-93.17796589999999
Clay County, Illinois,29.9943564,-81.77870209999999
Gallatin County, Illinois,45.5388865,-111.1194231
Jackson County, Illinois,38.9914998,-94.315422
Monroe County, Illinois,43.2841246,-77.7452081
Peoria County, Illinois,40.7156396,-89.77553379999999
Union County, Illinois,34.9338651,-80.54384499999999
Winnebago County, Illinois,44.0126679,-88.7108964
Piatt County, Illinois,40.0543526,-88.55653099999999
Pulaski County, Illinois,34.75386150000001,-92.2236667
Schuyler County, Illinois,42.3796425,-76.8720961
Stark County, Illinois,40.8684676,-81.2518833
Edgar County, Illinois,39.71312229999999,-87.77633329999999
Bond County, Illinois,38.902985,-89.4742177
Boone County, Illinois,38.9940572,-84.7315563
Bureau County, Illinois,41.35991560000001,-89.4742177
Carroll County, Illinois,39.5423418,-77.0564464
Coles County, Illinois,39.5560011,-88.24611829999999
Crawford County, Illinois,41.6661391,-80.2767327
Jersey County, Illinois,39.0704754,-90.37483540000001
Putnam County, Illinois,41.4351069,-73.7948516
De Witt County, Illinois,29.1235194,-97.35165579999999
Fayette County, Illinois,33.4502206,-84.4802606
Lee County, Illinois,26.6630286,-81.9534815
Logan County, Illinois,40.38996789999999,-83.8473015
Macoupin County, Illinois,39.2375268,-89.9253233
Richland County, Illinois,34.0412165,-80.9428911
Saline County, Illinois,34.5708215,-92.539603
Washington County, Illinois,45.5469616,-123.1386021
Montgomery County, Illinois,39.1547426,-77.2405153
Whiteside County, Illinois,41.7605503,-89.8505012
Adams County, Illinois,39.8398269,-104.1930918
Clinton County, Illinois,42.9663458,-84.5222189
DeKalb County, Illinois,33.7956441,-84.2278796
Edwards County, Illinois,29.9282955,-100.439656
Jasper County, Illinois,32.491436,-81.0754657
Jefferson County, Illinois,39.5800298,-105.2662931
Vermilion County, Illinois,40.122469,-87.697554
Will County, Illinois,41.5054724,-88.0900762
Williamson County, Illinois,30.7591685,-97.69822719999999
Clark County, Illinois,36.0795613,-115.094045
Douglas County, Illinois,39.2587106,-104.9388853
Effingham County, Illinois,32.378148,-81.38393260000001
Fulton County, Illinois,33.8033965,-84.3962535
Greene County, Illinois,39.697399,-83.8897057
Hamilton County, Illinois,39.2355447,-84.56414699999999
Hardin County, Illinois,30.364764,-94.315422
Henry County, Illinois,33.4347963,-84.14351359999999
Johnson County, Illinois,38.845412,-94.8520636
Knox County, Illinois,35.9874629,-83.9419784
Lake County, Illinois,42.3689363,-87.8271534
Livingston County, Illinois,42.6207951,-83.8473015
Massac County, Illinois,37.2478298,-88.7493998
Scott County, Illinois,44.6834072,-93.54079089999999
Tazewell County, Illinois,40.5522078,-89.4742177
Cass County, Illinois,47.2144536,-94.2309171
Warren County, Illinois,39.4241422,-84.1857115
Monroe County, Indiana,43.2841246,-77.7452081
Fountain County, Indiana,40.22271970000001,-87.3347575
Elkhart County, Indiana,41.6062253,-85.84862360000001
Starke County, Indiana,41.2715616,-86.6207943
Crawford County, Indiana,41.6661391,-80.2767327
Cass County, Indiana,47.2144536,-94.2309171
Greene County, Indiana,39.697399,-83.8897057
Marion County, Indiana,44.8446393,-122.5927411
Wayne County, Indiana,42.2790746,-83.33618799999999
Grant County, Indiana,47.1981147,-119.3732456
LaSalle County, Illinois,41.4363987,-88.94138650000001
Clay County, Indiana,29.9943564,-81.77870209999999
Hendricks County, Indiana,39.8064942,-86.5400674
Dubois County, Indiana,38.357918,-86.8220341
Franklin County, Indiana,40.0154745,-82.99316069999999
Hancock County, Indiana,39.8249915,-85.84862360000001
Jackson County, Indiana,38.9914998,-94.315422
Howard County, Indiana,39.2873463,-76.964306
Ohio County, Indiana,37.5108523,-86.8220341
Owen County, Indiana,39.3603429,-86.8220341
Parke County, Indiana,39.69929459999999,-87.14228949999999
Randolph County, Indiana,35.7449531,-79.8296743
Whitley County, Indiana,41.1136133,-85.52002399999999
Benton County, Indiana,46.3166362,-119.5021582
Brown County, Indiana,44.45616740000001,-87.9334803
Clinton County, Indiana,42.9663458,-84.5222189
Putnam County, Indiana,41.4351069,-73.7948516
Union County, Indiana,34.9338651,-80.54384499999999
Washington County, Indiana,45.5469616,-123.1386021
Daviess County, Indiana,37.7307984,-87.10237459999999
Dearborn County, Indiana,39.1713075,-84.981754
Henry County, Indiana,33.4347963,-84.14351359999999
Knox County, Indiana,35.9874629,-83.9419784
Lawrence County, Indiana,40.957855,-80.365865
Madison County, Indiana,38.9041402,-89.9253233
Perry County, Indiana,40.371376,-77.2405153
Pike County, Indiana,41.3361875,-75.06111469999999
Pulaski County, Indiana,34.75386150000001,-92.2236667
Posey County, Indiana,38.0020359,-87.89424509999999
Steuben County, Indiana,42.321027,-77.3783789
Warren County, Indiana,39.4241422,-84.1857115
Vermillion County, Indiana,40.122469,-87.697554
Wells County, Indiana,40.7778348,-85.1894045
Floyd County, Indiana,34.2828967,-85.2308414
Allen County, Indiana,41.0932622,-85.02334599999999
Decatur County, Indiana,39.3176186,-85.52002399999999
Delaware County, Indiana,39.907793,-75.3878525
Miami County, Indiana,40.081473,-84.1857115
Jefferson County, Indiana,39.5800298,-105.2662931
Jennings County, Indiana,38.9914998,-85.684578
Johnson County, Indiana,38.845412,-94.8520636
Morgan County, Indiana,41.0576176,-111.6183755
Gibson County, Indiana,38.3338249,-87.5791287
Newton County, Indiana,33.5544296,-83.8473015
Orange County, Indiana,33.7174708,-117.8311428
St. Joseph County, Indiana,41.6228085,-86.3376761
Kosciusko County, Indiana,41.2864679,-85.84862360000001
Marshall County, Indiana,34.3652297,-86.3376761
Switzerland County, Indiana,38.8419394,-85.0649071
Vanderburgh County, Indiana,38.0806099,-87.5791287
Blackford County, Indiana,40.49927840000001,-85.31362179999999
Carroll County, Indiana,39.5423418,-77.0564464
Scott County, Indiana,44.6834072,-93.54079089999999
Harrison County, Indiana,30.432087,-89.0179332
Huntington County, Indiana,40.7911217,-85.52002399999999
LaPorte County, Indiana,41.4775131,-86.8220341
Wabash County, Indiana,40.8033875,-85.84862360000001
White County, Indiana,34.6567728,-83.7199136
Jasper County, Indiana,32.491436,-81.0754657
Jay County, Indiana,40.4465288,-85.02334599999999
Martin County, Indiana,27.0804935,-80.4103957
Porter County, Indiana,41.5248577,-87.10237459999999
Shelby County, Indiana,35.1268552,-89.9253233
Ripley County, Indiana,39.0986811,-85.2308414
Spencer County, Indiana,38.0123167,-85.31362179999999
Sullivan County, Indiana,41.6897493,-74.7805192
Tipton County, Indiana,35.5217179,-89.7379958
Tippecanoe County, Indiana,40.34697310000001,-86.8220341
Vigo County, Indiana,39.4165382,-87.42075179999999
Warrick County, Indiana,38.0736703,-87.2618328
Hamilton County, Indiana,39.2355447,-84.56414699999999
DeKalb County, Indiana,33.7956441,-84.2278796
LaGrange County, Indiana,41.62887020000001,-85.39627689999999
Bartholomew County, Indiana,39.206801,-85.8895551
Rush County, Indiana,39.6481768,-85.52002399999999
Boone County, Indiana,38.9940572,-84.7315563
Fulton County, Indiana,33.8033965,-84.3962535
Lake County, Indiana,42.3689363,-87.8271534
Montgomery County, Indiana,39.1547426,-77.2405153
Noble County, Indiana,41.4277391,-85.35496499999999
Adams County, Indiana,39.8398269,-104.1930918
Clark County, Indiana,36.0795613,-115.094045
Fayette County, Indiana,33.4502206,-84.4802606
Delaware County, Iowa,39.907793,-75.3878525
Jefferson County, Iowa,39.5800298,-105.2662931
Wayne County, Iowa,42.2790746,-83.33618799999999
Allamakee County, Iowa,43.2430754,-91.44346900000001
Linn County, Iowa,42.0659844,-91.67606909999999
Scott County, Iowa,44.6834072,-93.54079089999999
Dallas County, Iowa,32.8024682,-96.83509989999999
O'Brien County, Iowa,43.1131245,-95.6457951
Benton County, Iowa,46.3166362,-119.5021582
Butler County, Iowa,39.440463,-84.5222189
Dubuque County, Iowa,42.4694679,-90.8294002
Fremont County, Iowa,38.5306514,-105.5005483
Hamilton County, Iowa,39.2355447,-84.56414699999999
Pocahontas County, Iowa,38.3101706,-80.0087746
Taylor County, Iowa,32.2455088,-99.8124935
Union County, Iowa,34.9338651,-80.54384499999999
Van Buren County, Iowa,42.2459665,-86.0121573
Worth County, Iowa,43.3580686,-93.33889169999999
Ringgold County, Iowa,40.7973811,-94.315422
Adams County, Iowa,39.8398269,-104.1930918
Adair County, Iowa,37.076403,-85.31362179999999
Audubon County, Iowa,41.7326826,-94.976654
Chickasaw County, Iowa,33.8818791,-89.0179332
Clarke County, Iowa,33.9519347,-83.357567
Davis County, Iowa,40.9628845,-112.0953297
Dickinson County, Iowa,43.4049388,-95.18492189999999
Ida County, Iowa,42.3418685,-95.4777811
Johnson County, Iowa,38.845412,-94.8520636
Keokuk County, Iowa,41.3397063,-92.2236667
Monroe County, Iowa,43.2841246,-77.7452081
Tama County, Iowa,42.1292592,-92.539603
Wapello County, Iowa,41.0148894,-92.38136209999999
Sioux County, Iowa,43.08699360000001,-96.15269850000001
Franklin County, Iowa,40.0154745,-82.99316069999999
Calhoun County, Iowa,42.2073905,-85.02334599999999
Carroll County, Iowa,39.5423418,-77.0564464
Cedar County, Iowa,41.8346154,-91.13530200000001
Cerro Gordo County, Iowa,43.1543186,-93.20296750000001
Floyd County, Iowa,34.2828967,-85.2308414
Greene County, Iowa,39.697399,-83.8897057
Hardin County, Iowa,30.364764,-94.315422
Louisa County, Iowa,37.9925909,-77.973865
Lucas County, Iowa,41.6894388,-83.3789389
Lyon County, Iowa,38.9524739,-119.1390642
Winnebago County, Iowa,44.0126679,-88.7108964
Palo Alto County, Iowa,43.1580878,-94.645035
Shelby County, Iowa,35.1268552,-89.9253233
Appanoose County, Iowa,40.6806102,-92.8577105
Henry County, Iowa,33.4347963,-84.14351359999999
Iowa County, Iowa,42.9416737,-90.0746767
Jasper County, Iowa,32.491436,-81.0754657
Page County, Iowa,38.63013309999999,-78.52065
Winneshiek County, Iowa,43.2362611,-91.9099238
Poweshiek County, Iowa,41.6530119,-92.539603
Pottawattamie County, Iowa,41.3911501,-95.4777811
Marshall County, Iowa,34.3652297,-86.3376761
Clayton County, Iowa,33.5571944,-84.375233
Boone County, Iowa,38.9940572,-84.7315563
Bremer County, Iowa,42.76108199999999,-92.38136209999999
Buena Vista County, Iowa,42.6705452,-95.1432068
Howard County, Iowa,39.2873463,-76.964306
Emmet County, Iowa,45.6418969,-84.9769067
Guthrie County, Iowa,41.7530909,-94.479976
Hancock County, Iowa,39.8249915,-85.84862360000001
Humboldt County, Iowa,40.7450055,-123.8695086
Madison County, Iowa,38.9041402,-89.9253233
Marion County, Iowa,44.8446393,-122.5927411
Washington County, Iowa,45.5469616,-123.1386021
Wright County, Iowa,45.1538202,-94.01909429999999
Cass County, Iowa,47.2144536,-94.2309171
Cherokee County, Iowa,34.2514526,-84.4802606
Crawford County, Iowa,41.6661391,-80.2767327
Des Moines County, Iowa,40.9123374,-91.17369939999999
Fayette County, Iowa,33.4502206,-84.4802606
Harrison County, Iowa,30.432087,-89.0179332
Kossuth County, Iowa,43.25133839999999,-94.2333355
Mills County, Iowa,31.6137467,-98.5721016
Monona County, Iowa,42.001594,-95.9832577
Muscatine County, Iowa,41.5156913,-91.13530200000001
Osceola County, Iowa,28.1019838,-81.0754657
Polk County, Iowa,27.8617347,-81.6911559
Webster County, Iowa,42.3974963,-94.15137639999999
Story County, Iowa,42.1040438,-93.5003454
Woodbury County, Iowa,42.3166158,-95.9832577
Black Hawk County, Iowa,42.447804,-92.38136209999999
Grundy County, Iowa,41.3500531,-88.4016041
Jackson County, Iowa,38.9914998,-94.315422
Jones County, Iowa,31.5343241,-89.1705998
Lee County, Iowa,26.6630286,-81.9534815
Mitchell County, Iowa,36.0277763,-82.1496049
Montgomery County, Iowa,39.1547426,-77.2405153
Warren County, Iowa,39.4241422,-84.1857115
Sac County, Iowa,38.47467,-121.3541631
Mahaska County, Iowa,41.32958800000001,-92.6983868
Plymouth County, Iowa,41.9120406,-70.7168469
Buchanan County, Iowa,39.6349791,-94.81059549999999
Clay County, Iowa,29.9943564,-81.77870209999999
Clinton County, Iowa,42.9663458,-84.5222189
Decatur County, Iowa,39.3176186,-85.52002399999999
Smith County, Kansas,32.3352505,-95.3102505
Grant County, Kansas,47.1981147,-119.3732456
Jackson County, Kansas,38.9914998,-94.315422
Kingman County, Kansas,37.6071593,-98.2212979
Logan County, Kansas,40.38996789999999,-83.8473015
Cherokee County, Kansas,34.2514526,-84.4802606
Nemaha County, Kansas,39.7451077,-95.9832577
Pottawatomie County, Kansas,39.3976344,-96.3226072
Wyandotte County, Kansas,39.0986811,-94.7691586
Butler County, Kansas,39.440463,-84.5222189
Clay County, Kansas,29.9943564,-81.77870209999999
Lincoln County, Kansas,35.4637028,-81.20781640000001
Saline County, Kansas,34.5708215,-92.539603
Sumner County, Kansas,36.4718084,-86.49965460000001
Trego County, Kansas,38.9900316,-99.8124935
Wabaunsee County, Kansas,38.9092089,-96.15269850000001
Wilson County, Kansas,35.6925497,-77.88245959999999
Woodson County, Kansas,37.9197853,-95.81428849999999
Mitchell County, Kansas,36.0277763,-82.1496049
Ness County, Kansas,38.4769509,-99.99122539999999
Osborne County, Kansas,39.4051157,-98.7481167
Atchison County, Kansas,39.5701137,-95.35208759999999
Bourbon County, Kansas,38.2170752,-84.2278796
Finney County, Kansas,38.0625252,-100.8903099
Hamilton County, Kansas,39.2355447,-84.56414699999999
Kiowa County, Kansas,37.52851649999999,-99.2785583
Leavenworth County, Kansas,39.1713075,-95.01824599999999
Shawnee County, Kansas,39.0928449,-95.81428849999999
Sherman County, Kansas,45.4122013,-120.753042
Stanton County, Kansas,37.6390381,-101.7979613
Thomas County, Kansas,30.8417409,-83.8473015
Meade County, Kansas,44.4415188,-102.6855069
Montgomery County, Kansas,39.1547426,-77.2405153
Morris County, Kansas,40.8336038,-74.54632819999999
Pratt County, Kansas,37.5691719,-98.7481167
Rawlins County, Kansas,39.8600904,-101.0711758
Rooks County, Kansas,39.3638509,-99.2785583
Anderson County, Kansas,34.5528328,-82.6483442
Clark County, Kansas,36.0795613,-115.094045
Ellsworth County, Kansas,38.615225,-98.2212979
Geary County, Kansas,38.9984685,-96.79223549999999
Harper County, Kansas,37.1096002,-98.04651849999999
Ford County, Kansas,37.6540069,-99.8124935
Russell County, Kansas,32.3552497,-85.1894045
Lyon County, Kansas,38.9524739,-119.1390642
Marshall County, Kansas,34.3652297,-86.3376761
Pawnee County, Kansas,38.2017581,-99.2785583
Allen County, Kansas,41.0932622,-85.02334599999999
Cheyenne County, Kansas,41.2509264,-103.0817903
Comanche County, Kansas,34.6612778,-98.3964938
Cowley County, Kansas,37.2660235,-96.9209135
Elk County, Kansas,41.4284924,-78.5660852
Gove County, Kansas,38.9271279,-100.5296115
Franklin County, Kansas,40.0154745,-82.99316069999999
Harvey County, Kansas,38.0025215,-97.35165579999999
Hodgeman County, Kansas,38.1429747,-99.99122539999999
Jewell County, Kansas,39.7720227,-98.2212979
Kearny County, Kansas,38.0281402,-101.2523792
Rice County, Kansas,44.2749995,-93.33889169999999
Stafford County, Kansas,38.4334566,-77.4242972
McPherson County, Kansas,38.3164433,-97.69822719999999
Osage County, Kansas,36.6189367,-96.2375947
Greeley County, Kansas,38.4738028,-101.7979613
Coffey County, Kansas,38.2570639,-95.81428849999999
Crawford County, Kansas,41.6661391,-80.2767327
Ellis County, Kansas,32.2619765,-96.83509989999999
Greenwood County, Kansas,34.1672949,-82.12783999999999
Labette County, Kansas,37.2639041,-95.3102505
Linn County, Kansas,42.0659844,-91.67606909999999
Sedgwick County, Kansas,37.6537367,-97.5247243
Seward County, Kansas,37.221014,-100.8903099
Republic County, Kansas,39.807989,-97.69822719999999
Graham County, Kansas,33.076805,-109.7591675
Johnson County, Kansas,38.845412,-94.8520636
Douglas County, Kansas,39.2587106,-104.9388853
Sheridan County, Kansas,44.787904,-106.925973
Miami County, Kansas,40.081473,-84.1857115
Gray County, Kansas,35.3352558,-100.8903099
Wallace County, Kansas,38.9697127,-101.7979613
Chase County, Kansas,38.3007661,-96.57833869999999
Stevens County, Kansas,48.4558249,-117.9059909
Washington County, Kansas,45.5469616,-123.1386021
Wichita County, Kansas,33.9309651,-98.7481167
Chautauqua County, Kansas,42.2312829,-79.560344
Morton County, Kansas,46.6683872,-101.1621736
Norton County, Kansas,39.7959566,-99.99122539999999
Reno County, Kansas,37.9569553,-98.04651849999999
Barton County, Kansas,38.3613844,-98.7651482
Cloud County, Kansas,39.4795571,-97.69822719999999
Doniphan County, Kansas,39.8245628,-95.18492189999999
Edwards County, Kansas,29.9282955,-100.439656
Haskell County, Kansas,33.1403423,-99.8124935
Lane County, Kansas,43.9610092,-122.6618227
Rush County, Kansas,39.6481768,-85.52002399999999
Scott County, Kansas,44.6834072,-93.54079089999999
Marion County, Kansas,44.8446393,-122.5927411
Neosho County, Kansas,37.6045688,-95.3102505
Brown County, Kansas,44.45616740000001,-87.9334803
Ottawa County, Kansas,42.95302299999999,-86.0937312
Phillips County, Kansas,34.4611206,-90.86751339999999
Riley County, Kansas,39.3686475,-96.83509989999999
Barber County, Kansas,37.2299788,-98.7481167
Decatur County, Kansas,39.3176186,-85.52002399999999
Dickinson County, Kansas,43.4049388,-95.18492189999999
Jefferson County, Kansas,39.5800298,-105.2662931
Harrison County, Kentucky,30.432087,-89.0179332
Butler County, Kentucky,39.440463,-84.5222189
Trimble County, Kentucky,38.6013284,-85.31362179999999
Edmonson County, Kentucky,37.1941682,-86.21584969999999
Hickman County, Kentucky,35.80127969999999,-87.460397
Bracken County, Kentucky,38.7117016,-84.05902900000001
Lyon County, Kentucky,38.9524739,-119.1390642
Nelson County, Kentucky,37.7478599,-78.8835548
Wayne County, Kentucky,42.2790746,-83.33618799999999
Lewis County, Kentucky,46.6195461,-122.4554639
Marion County, Kentucky,44.8446393,-122.5927411
Trigg County, Kentucky,36.8473642,-87.77633329999999
Woodford County, Kentucky,40.7128889,-89.1705998
Boone County, Kentucky,38.9940572,-84.7315563
Leslie County, Kentucky,37.0698286,-83.3789389
Jessamine County, Kentucky,37.895573,-84.56414699999999
Knox County, Kentucky,35.9874629,-83.9419784
Lawrence County, Kentucky,40.957855,-80.365865
Letcher County, Kentucky,37.12535099999999,-82.8640623
Livingston County, Kentucky,42.6207951,-83.8473015
McCracken County, Kentucky,37.03306070000001,-88.7108964
Pike County, Kentucky,41.3361875,-75.06111469999999
Shelby County, Kentucky,35.1268552,-89.9253233
Whitley County, Kentucky,41.1136133,-85.52002399999999
Anderson County, Kentucky,34.5528328,-82.6483442
Breckinridge County, Kentucky,37.7982002,-86.4592091
Floyd County, Kentucky,34.2828967,-85.2308414
Franklin County, Kentucky,40.0154745,-82.99316069999999
Kenton County, Kentucky,38.9863872,-84.56414699999999
McCreary County, Kentucky,36.6973499,-84.4802606
Madison County, Kentucky,38.9041402,-89.9253233
Magoffin County, Kentucky,37.730555,-83.03613759999999
Metcalfe County, Kentucky,37.0032438,-85.64348700000001
Owsley County, Kentucky,37.4294933,-83.7199136
Rowan County, Kentucky,35.6303455,-80.54384499999999
Simpson County, Kentucky,36.7772014,-86.6207943
Taylor County, Kentucky,32.2455088,-99.8124935
Clark County, Kentucky,36.0795613,-115.094045
Todd County, Kentucky,46.0307728,-94.8315488
Carlisle County, Kentucky,36.8206685,-88.9796776
Carroll County, Kentucky,39.5423418,-77.0564464
Clinton County, Kentucky,42.9663458,-84.5222189
Estill County, Kentucky,37.6975384,-83.9744262
Gallatin County, Kentucky,45.5388865,-111.1194231
Garrard County, Kentucky,37.6413234,-84.56414699999999
Greenup County, Kentucky,38.5665695,-82.95015579999999
Fleming County, Kentucky,38.3987633,-83.67739279999999
Campbell County, Kentucky,37.221014,-79.1096901
Carter County, Kentucky,36.2638604,-82.12783999999999
Elliott County, Kentucky,38.1575088,-83.12200740000002
Grant County, Kentucky,47.1981147,-119.3732456
Jefferson County, Kentucky,39.5800298,-105.2662931
Larue County, Kentucky,37.5189552,-85.7256372
Logan County, Kentucky,40.38996789999999,-83.8473015
Mason County, Kentucky,47.4251146,-123.1951376
Mercer County, Kentucky,40.3028533,-74.7337069
Pendleton County, Kentucky,38.7283386,-84.3962535
Robertson County, Kentucky,36.5250666,-86.86218269999999
Russell County, Kentucky,32.3552497,-85.1894045
Spencer County, Kentucky,38.0123167,-85.31362179999999
Washington County, Kentucky,45.5469616,-123.1386021
Bath County, Kentucky,38.111733,-79.6502105
Ballard County, Kentucky,37.0359869,-89.0179332
Barren County, Kentucky,36.9676836,-85.84862360000001
Boyle County, Kentucky,37.6526034,-84.8150781
Green County, Kentucky,42.6287336,-89.62516459999999
Hancock County, Kentucky,39.8249915,-85.84862360000001
Harlan County, Kentucky,36.8890304,-83.2077645
Martin County, Kentucky,27.0804935,-80.4103957
Hardin County, Kentucky,30.364764,-94.315422
Lincoln County, Kentucky,35.4637028,-81.20781640000001
McLean County, Kentucky,40.5478429,-88.86469799999999
Monroe County, Kentucky,43.2841246,-77.7452081
Ohio County, Kentucky,37.5108523,-86.8220341
Powell County, Kentucky,37.8380647,-83.8260884
Union County, Kentucky,34.9338651,-80.54384499999999
Webster County, Kentucky,42.3974963,-94.15137639999999
Caldwell County, Kentucky,35.9227448,-81.5596427
Calloway County, Kentucky,36.6402766,-88.28504199999999
Casey County, Kentucky,37.3157449,-84.8984775
Christian County, Kentucky,36.99764400000001,-93.17796589999999
Daviess County, Kentucky,37.7307984,-87.10237459999999
Grayson County, Kentucky,33.7062406,-96.663812
Henderson County, Kentucky,35.3725873,-82.4319405
Henry County, Kentucky,33.4347963,-84.14351359999999
Hopkins County, Kentucky,33.2282942,-95.4777811
Jackson County, Kentucky,38.9914998,-94.315422
Laurel County, Kentucky,37.0693489,-84.1857115
Marshall County, Kentucky,34.3652297,-86.3376761
Meade County, Kentucky,44.4415188,-102.6855069
Montgomery County, Kentucky,39.1547426,-77.2405153
Nicholas County, Kentucky,38.3307714,-80.7657804
Oldham County, Kentucky,38.3560025,-85.47880649999999
Owen County, Kentucky,39.3603429,-86.8220341
Rockcastle County, Kentucky,37.3743065,-84.3121264
Scott County, Kentucky,44.6834072,-93.54079089999999
Warren County, Kentucky,39.4241422,-84.1857115
Allen County, Kentucky,41.0932622,-85.02334599999999
Bourbon County, Kentucky,38.2170752,-84.2278796
Boyd County, Kentucky,38.3833265,-82.6915429
Bullitt County, Kentucky,37.9842107,-85.684578
Crittenden County, Kentucky,35.3021443,-90.37483540000001
Fayette County, Kentucky,33.4502206,-84.4802606
Fulton County, Kentucky,33.8033965,-84.3962535
Johnson County, Kentucky,38.845412,-94.8520636
Knott County, Kentucky,37.3461117,-82.99316069999999
Menifee County, Kentucky,37.9335368,-83.63484299999999
Morgan County, Kentucky,41.0576176,-111.6183755
Muhlenberg County, Kentucky,37.17725009999999,-87.14228949999999
Perry County, Kentucky,40.371376,-77.2405153
Pulaski County, Kentucky,34.75386150000001,-92.2236667
Wolfe County, Kentucky,37.75508689999999,-83.46435509999999
Clay County, Kentucky,29.9943564,-81.77870209999999
Adair County, Kentucky,37.076403,-85.31362179999999
Bell County, Kentucky,31.134411,-97.5247243
Breathitt County, Kentucky,37.5359616,-83.33618799999999
Cumberland County, Kentucky,34.9542604,-78.74762079999999
Graves County, Kentucky,36.6887728,-88.7108964
Hart County, Kentucky,34.3500039,-82.95015579999999
Lee County, Kentucky,26.6630286,-81.9534815
Hancock County, Maine,39.8249915,-85.84862360000001
Oxford County, Maine,44.4906897,-70.7840564
Lincoln County, Maine,35.4637028,-81.20781640000001
Waldo County, Maine,44.5106837,-69.20778960000001
Penobscot County, Maine,45.3230777,-68.5806727
Piscataquis County, Maine,45.70498569999999,-69.3375071
Androscoggin County, Maine,44.19124160000001,-70.17070369999999
Aroostook County, Maine,46.819941,-68.4766064
Washington County, Maine,45.5469616,-123.1386021
Cumberland County, Maine,34.9542604,-78.74762079999999
Knox County, Maine,35.9874629,-83.9419784
Sagadahoc County, Maine,43.8171265,-69.7825531
York County, Maine,34.9871367,-81.2518833
Kennebec County, Maine,44.4499153,-69.7038278
Franklin County, Maine,40.0154745,-82.99316069999999
Somerset County, Maine,40.5292099,-74.64004320000001
Vermilion Parish, Louisiana,29.8601413,-92.38136209999999
St. Charles Parish, Louisiana,29.9273657,-90.3371889
Lafourche Parish, Louisiana,29.6952295,-90.52578229999999
Concordia Parish, Louisiana,31.4808983,-91.63721500000001
Tensas Parish, Louisiana,32.077218,-91.28910359999999
West Feliciana Parish, Louisiana,30.8423123,-91.4048249
Jefferson Davis Parish, Louisiana,30.2672346,-92.8178291
St. James Parish, Louisiana,30.0179292,-90.7913227
Grant Parish, Louisiana,31.6943716,-92.539603
Jefferson Parish, Louisiana,29.6498691,-90.11206960000001
Beauregard Parish, Louisiana,30.7611484,-93.33889169999999
Bienville Parish, Louisiana,32.4107403,-93.0175712
Bossier Parish, Louisiana,32.7551322,-93.66232389999999
Cameron Parish, Louisiana,29.8434436,-93.17796589999999
East Feliciana Parish, Louisiana,30.8458948,-91.02032240000001
St. John the Baptist Parish, Louisiana,30.1118331,-90.4879916
Plaquemines Parish, Louisiana,29.3240045,-89.4742177
Ouachita Parish, Louisiana,32.4271852,-92.2236667
Rapides Parish, Louisiana,31.1461104,-92.539603
Washington Parish, Louisiana,30.80392599999999,-90.0746767
St. Landry Parish, Louisiana,30.6036535,-92.0665197
Tangipahoa Parish, Louisiana,30.6194521,-90.37483540000001
Acadia Parish, Louisiana,30.2297347,-92.38136209999999
St. Mary Parish, Louisiana,29.502976,-91.44346900000001
West Carroll Parish, Louisiana,32.7545792,-91.4821482
St. Tammany Parish, Louisiana,30.4357418,-89.9253233
Union Parish, Louisiana,32.7859102,-92.38136209999999
Caldwell Parish, Louisiana,32.0669717,-92.0665197
Caddo Parish, Louisiana,32.6136798,-93.86553029999999
East Carroll Parish, Louisiana,32.7570923,-91.2506002
Ascension Parish, Louisiana,30.2017295,-90.9438468
Lafayette Parish, Louisiana,30.1895142,-92.02731899999999
Evangeline Parish, Louisiana,30.7821781,-92.38136209999999
Iberia Parish, Louisiana,29.4992629,-91.7538817
Lincoln Parish, Louisiana,32.598888,-92.6983868
St. Bernard Parish, Louisiana,29.879791,-89.3226954
St. Helena Parish, Louisiana,30.8021866,-90.6773046
Webster Parish, Louisiana,32.7641355,-93.33889169999999
West Baton Rouge Parish, Louisiana,30.4751202,-91.3276422
De Soto Parish, Louisiana,32.0310567,-93.66232389999999
Iberville Parish, Louisiana,30.2899179,-91.4048249
Red River Parish, Louisiana,32.0842949,-93.3792057
Livingston Parish, Louisiana,30.4340146,-90.6773046
Morehouse Parish, Louisiana,32.796224,-91.7538817
Natchitoches Parish, Louisiana,31.6801229,-93.17796589999999
Orleans Parish, Louisiana,29.95106579999999,-90.0715323
Terrebonne Parish, Louisiana,29.2299682,-90.7532809
Catahoula Parish, Louisiana,31.7053083,-91.9099238
Calcasieu Parish, Louisiana,30.2089286,-93.33889169999999
Claiborne Parish, Louisiana,32.7722557,-93.0175712
Franklin Parish, Louisiana,32.0737103,-91.5983959
Avoyelles Parish, Louisiana,30.9711824,-92.0665197
Assumption Parish, Louisiana,29.9232544,-91.09693999999999
Jackson Parish, Louisiana,32.2399791,-92.539603
East Baton Rouge Parish, Louisiana,30.5693593,-91.09693999999999
Pointe Coupee Parish, Louisiana,30.6102166,-91.5983959
Richland Parish, Louisiana,32.3887281,-91.7928402
St. Martin Parish, Louisiana,30.2395901,-91.7538817
Vernon Parish, Louisiana,31.1320009,-93.17796589999999
Winn Parish, Louisiana,31.91961239999999,-92.6586401
Sabine Parish, Louisiana,31.4893252,-93.5003454
Allen Parish, Louisiana,30.5887484,-92.8577105
Madison Parish, Louisiana,32.4401578,-91.28910359999999
Suffolk County, Massachusetts,40.9848784,-72.61511689999999
Barnstable County, Massachusetts,41.69909579999999,-70.32091129999999
Dukes County, Massachusetts,41.4039539,-70.6692655
Middlesex County, Massachusetts,40.4111363,-74.35874729999999
Berkshire County, Massachusetts,42.311782,-73.1821623
Bristol County, Massachusetts,41.7938406,-71.1448516
Hampden County, Massachusetts,42.1172314,-72.6624209
Plymouth County, Massachusetts,41.9120406,-70.7168469
Essex County, Massachusetts,40.7947466,-74.2648829
Franklin County, Massachusetts,40.0154745,-82.99316069999999
Norfolk County, Massachusetts,42.17668,-71.1448516
Worcester County, Massachusetts,38.1584227,-75.4344727
Hampshire County, Massachusetts,42.3471357,-72.6624209
Nantucket County, Massachusetts,41.2834704,-70.099451
Worcester County, Maryland,38.1584227,-75.4344727
Baltimore city, Maryland,39.2903848,-76.6121893
Somerset County, Maryland,40.5292099,-74.64004320000001
Talbot County, Maryland,38.7803973,-76.1319953
Harford County, Maryland,39.5838964,-76.3637285
Allegany County, Maryland,42.3129816,-78.0195387
Howard County, Maryland,39.2873463,-76.964306
Prince George's County, Maryland,38.78492110000001,-76.8720961
Anne Arundel County, Maryland,38.9530109,-76.5488232
Baltimore County, Maryland,39.4647665,-76.7336521
Frederick County, Maryland,39.3844507,-77.4701972
Calvert County, Maryland,38.49495030000001,-76.5025742
Garrett County, Maryland,39.5681243,-79.29021329999999
Kent County, Maryland,43.0097027,-85.52002399999999
Montgomery County, Maryland,39.1547426,-77.2405153
Carroll County, Maryland,39.5423418,-77.0564464
Queen Anne's County, Maryland,39.0263572,-76.1319953
St. Mary's County, Maryland,38.1060259,-76.3637285
Charles County, Maryland,38.5221781,-77.10249019999999
Dorchester County, Maryland,33.1680383,-80.54384499999999
Washington County, Maryland,45.5469616,-123.1386021
Wicomico County, Maryland,38.3941813,-75.667356
Cecil County, Maryland,39.5739403,-75.94632399999999
Caroline County, Maryland,38.0445557,-77.2864879
Berrien County, Michigan,42.0320742,-86.7416374
Ogemaw County, Michigan,44.3270741,-84.1857115
Oscoda County, Michigan,44.6278903,-84.1857115
Wexford County, Michigan,44.387157,-85.52002399999999
Crawford County, Michigan,41.6661391,-80.2767327
Clinton County, Michigan,42.9663458,-84.5222189
Dickinson County, Michigan,43.4049388,-95.18492189999999
Gratiot County, Michigan,43.2836505,-84.68974949999999
Huron County, Michigan,43.9466791,-82.82097399999999
Ingham County, Michigan,42.6468943,-84.3542049
Lenawee County, Michigan,41.8433859,-84.01674229999999
Mason County, Michigan,47.4251146,-123.1951376
Menominee County, Michigan,45.4995277,-87.5746277
Montcalm County, Michigan,43.3057341,-85.1894045
Missaukee County, Michigan,44.366621,-85.02334599999999
St. Joseph County, Michigan,41.6228085,-86.3376761
St. Clair County, Michigan,43.016179,-82.6483442
Van Buren County, Michigan,42.2459665,-86.0121573
Washtenaw County, Michigan,42.3076493,-83.8473015
Arenac County, Michigan,43.9973355,-83.67739279999999
Barry County, Michigan,42.5354321,-85.35496499999999
Cass County, Michigan,47.2144536,-94.2309171
Iron County, Michigan,37.7854715,-113.1918021
Benzie County, Michigan,44.678277,-86.2970998
Roscommon County, Michigan,44.3516109,-84.68974949999999
Schoolcraft County, Michigan,46.0693515,-86.1903622
Wayne County, Michigan,42.2790746,-83.33618799999999
Branch County, Michigan,41.8913835,-85.02334599999999
Grand Traverse County, Michigan,44.687984,-85.52002399999999
Jackson County, Michigan,38.9914998,-94.315422
Mackinac County, Michigan,46.02337199999999,-84.9963081
Genesee County, Michigan,43.0777289,-83.67739279999999
Antrim County, Michigan,44.9730441,-85.1769095
Houghton County, Michigan,47.1211215,-88.5694012
Livingston County, Michigan,42.6207951,-83.8473015
Iosco County, Michigan,44.3340462,-83.63862259999999
Lake County, Michigan,42.3689363,-87.8271534
Manistee County, Michigan,44.2444704,-86.32422249999999
Montmorency County, Michigan,45.07427939999999,-84.1403141
Presque Isle County, Michigan,45.5729299,-83.597821
Gladwin County, Michigan,44.0327885,-84.3542049
Kalamazoo County, Michigan,42.2278346,-85.52002399999999
Mecosta County, Michigan,43.6201025,-85.35496499999999
Marquette County, Michigan,43.865322,-89.3226954
Newaygo County, Michigan,43.55935820000001,-85.76666449999999
Osceola County, Michigan,28.1019838,-81.0754657
Otsego County, Michigan,42.5779779,-75.06111469999999
Calhoun County, Michigan,42.2073905,-85.02334599999999
Cheboygan County, Michigan,45.5472257,-84.56362829999999
Luce County, Michigan,46.5827512,-85.513329
Kent County, Michigan,43.0097027,-85.52002399999999
Macomb County, Michigan,42.7168759,-82.82097399999999
Saginaw County, Michigan,43.4044253,-84.01674229999999
Shiawassee County, Michigan,42.949754,-84.1857115
Baraga County, Michigan,46.7352761,-88.3010401
Bay County, Michigan,30.1805306,-85.684578
Charlevoix County, Michigan,45.4342853,-85.4374778
Eaton County, Michigan,42.5886496,-84.7733325
Delta County, Michigan,38.8531357,-107.763621
Gogebic County, Michigan,46.4392785,-89.92147399999999
Emmet County, Michigan,45.6418969,-84.9769067
Chippewa County, Michigan,45.0673752,-91.2924666
Monroe County, Michigan,43.2841246,-77.7452081
Allegan County, Michigan,42.5709865,-86.3376761
Oakland County, Michigan,42.59219239999999,-83.33618799999999
Hillsdale County, Michigan,41.8685961,-84.5222189
Alger County, Michigan,46.927418,-86.5087741
Muskegon County, Michigan,43.2831969,-86.7416374
Oceana County, Michigan,43.6656285,-86.6611083
Leelanau County, Michigan,45.0821226,-86.07336339999999
Lapeer County, Michigan,43.0482433,-83.1649001
Clare County, Michigan,44.0565054,-84.8567932
Sanilac County, Michigan,43.4069041,-82.7347142
Keweenaw County, Michigan,47.7515686,-88.3249369
Isabella County, Michigan,43.598799,-84.8567932
Ontonagon County, Michigan,46.8727913,-89.31311889999999
Ottawa County, Michigan,42.95302299999999,-86.0937312
Tuscola County, Michigan,43.5301144,-83.5070203
Alcona County, Michigan,44.6727944,-83.60223979999999
Alpena County, Michigan,45.0168239,-83.1116742
Ionia County, Michigan,42.9892119,-85.02334599999999
Kalkaska County, Michigan,44.66744449999999,-85.02334599999999
Midland County, Michigan,43.57509779999999,-84.3542049
Wilkin County, Minnesota,46.4087398,-96.5018468
Red Lake County, Minnesota,47.8770338,-96.13456409999999
Aitkin County, Minnesota,46.61854330000001,-93.45366920000001
Clay County, Minnesota,29.9943564,-81.77870209999999
Faribault County, Minnesota,43.6448766,-93.9878427
Murray County, Minnesota,34.7928029,-84.7315563
Fillmore County, Minnesota,43.6956298,-92.0665197
Kandiyohi County, Minnesota,45.11445519999999,-95.0155836
Lake County, Minnesota,42.3689363,-87.8271534
Polk County, Minnesota,27.8617347,-81.6911559
Rock County, Minnesota,42.6251506,-89.0179332
Roseau County, Minnesota,48.7249475,-95.9820524
Sibley County, Minnesota,44.5502089,-94.15137639999999
Traverse County, Minnesota,45.8030256,-96.365147
Watonwan County, Minnesota,43.9323091,-94.479976
Becker County, Minnesota,46.9164628,-95.7036557
Hennepin County, Minnesota,45.0208911,-93.5094574
Big Stone County, Minnesota,45.4932045,-96.4724
Brown County, Minnesota,44.45616740000001,-87.9334803
Chippewa County, Minnesota,45.0673752,-91.2924666
Cass County, Minnesota,47.2144536,-94.2309171
Clearwater County, Minnesota,47.72007869999999,-95.3105661
Goodhue County, Minnesota,44.4430251,-92.6983868
Hubbard County, Minnesota,47.1860527,-94.94114230000001
Isanti County, Minnesota,45.6301379,-93.2537327
Jackson County, Minnesota,38.9914998,-94.315422
Martin County, Minnesota,27.0804935,-80.4103957
Mower County, Minnesota,43.6824988,-92.6983868
Nobles County, Minnesota,43.71969319999999,-95.81428849999999
Pine County, Minnesota,46.0983087,-92.80707079999999
Olmsted County, Minnesota,43.995179,-92.38136209999999
Cottonwood County, Minnesota,44.0488692,-95.3102505
Scott County, Minnesota,44.6834072,-93.54079089999999
Dodge County, Minnesota,43.3994215,-88.7108964
Wabasha County, Minnesota,44.3020812,-92.2236667
Pipestone County, Minnesota,43.9973355,-96.3226072
Crow Wing County, Minnesota,46.5957987,-94.1401699
Norman County, Minnesota,47.3416805,-96.5313092
Wright County, Minnesota,45.1538202,-94.01909429999999
Nicollet County, Minnesota,44.3572855,-94.27436279999999
Douglas County, Minnesota,39.2587106,-104.9388853
Grant County, Minnesota,47.1981147,-119.3732456
Kittson County, Minnesota,48.7563083,-96.865445
Le Sueur County, Minnesota,44.461555,-93.9151438
Mahnomen County, Minnesota,47.3811737,-95.797516
Chisago County, Minnesota,45.524828,-92.9550305
Redwood County, Minnesota,44.3516109,-95.3102505
Yellow Medicine County, Minnesota,44.7380445,-95.8564864
Todd County, Minnesota,46.0307728,-94.8315488
Beltrami County, Minnesota,48.0370038,-94.82892389999999
Blue Earth County, Minnesota,43.9505132,-93.9878427
Houston County, Minnesota,32.4219655,-83.63484299999999
Lac qui Parle County, Minnesota,45.0562676,-96.2006981
Lake of the Woods County, Minnesota,48.6943855,-94.92654739999999
Otter Tail County, Minnesota,46.51894350000001,-95.8935983
Waseca County, Minnesota,43.961388,-93.66232389999999
St. Louis County, Minnesota,38.6103023,-90.4125181
Anoka County, Minnesota,45.3292832,-93.2197005
Stearns County, Minnesota,45.5844792,-94.5865603
Dakota County, Minnesota,44.731554,-93.17796589999999
Lincoln County, Minnesota,35.4637028,-81.20781640000001
Lyon County, Minnesota,38.9524739,-119.1390642
Marshall County, Minnesota,34.3652297,-86.3376761
Mille Lacs County, Minnesota,45.9228403,-93.6218744
Renville County, Minnesota,44.66744449999999,-94.976654
Washington County, Minnesota,45.5469616,-123.1386021
Carlton County, Minnesota,46.5619247,-92.6847226
Cook County, Minnesota,41.7376587,-87.697554
Kanabec County, Minnesota,45.9329034,-93.2883531
Koochiching County, Minnesota,48.1816012,-93.648322
Meeker County, Minnesota,45.1353179,-94.5150543
Morrison County, Minnesota,45.9846475,-94.052545
Pennington County, Minnesota,43.8901111,-102.2547919
Rice County, Minnesota,44.2749995,-93.33889169999999
Steele County, Minnesota,43.9758523,-93.17796589999999
Sherburne County, Minnesota,45.4644612,-93.7298983
Wadena County, Minnesota,46.6415934,-94.936044
Benton County, Minnesota,46.3166362,-119.5021582
Carver County, Minnesota,44.82543099999999,-93.7841503
Freeborn County, Minnesota,43.6656285,-93.33889169999999
Itasca County, Minnesota,47.5507924,-93.5683651
McLeod County, Minnesota,44.8440016,-94.315422
Pope County, Minnesota,35.440627,-93.0175712
Ramsey County, Minnesota,44.9963986,-93.0615978
Stevens County, Minnesota,48.4558249,-117.9059909
Swift County, Minnesota,45.2315651,-95.71960419999999
Winona County, Minnesota,44.006499,-91.7538817
Hancock County, Mississippi,39.8249915,-85.84862360000001
LaSalle Parish, Louisiana,31.7002461,-92.2236667
Sharkey County, Mississippi,32.9860902,-90.8294002
Tippah County, Mississippi,34.76880970000001,-88.86469799999999
Choctaw County, Mississippi,33.9851472,-95.51973939999999
Forrest County, Mississippi,31.2148677,-89.28472510000002
Itawamba County, Mississippi,34.2317882,-88.4016041
Lafayette County, Mississippi,39.0031288,-93.9878427
Issaquena County, Mississippi,32.8494351,-91.02032240000001
Jackson County, Mississippi,38.9914998,-94.315422
Lowndes County, Mississippi,30.8600022,-83.2934086
Leflore County, Mississippi,33.5274427,-90.37483540000001
Tunica County, Mississippi,34.6407083,-90.4125181
Wilkinson County, Mississippi,32.8024682,-83.1649001
Claiborne County, Mississippi,36.4830423,-83.63484299999999
Harrison County, Mississippi,30.432087,-89.0179332
Jefferson Davis County, Mississippi,31.58252809999999,-89.81303559999999
Simpson County, Mississippi,36.7772014,-86.6207943
Lauderdale County, Mississippi,34.8840876,-87.658113
Lincoln County, Mississippi,35.4637028,-81.20781640000001
Scott County, Mississippi,44.6834072,-93.54079089999999
Winston County, Mississippi,34.1690087,-87.3413599
Yazoo County, Mississippi,32.8078912,-90.37483540000001
Attala County, Mississippi,33.1683267,-89.62516459999999
Benton County, Mississippi,46.3166362,-119.5021582
Franklin County, Mississippi,40.0154745,-82.99316069999999
Coahoma County, Mississippi,34.1960298,-90.6393702
Jasper County, Mississippi,32.491436,-81.0754657
Jones County, Mississippi,31.5343241,-89.1705998
Walthall County, Mississippi,31.125165,-90.11206960000001
Monroe County, Mississippi,43.2841246,-77.7452081
Pontotoc County, Mississippi,34.7685043,-96.663812
Sunflower County, Mississippi,33.526164,-90.6773046
Webster County, Mississippi,42.3974963,-94.15137639999999
Alcorn County, Mississippi,34.8984684,-88.59517509999999
Adams County, Mississippi,39.8398269,-104.1930918
Clay County, Mississippi,29.9943564,-81.77870209999999
DeSoto County, Mississippi,34.9065453,-89.9626799
Covington County, Mississippi,31.3066438,-86.49965460000001
Humphreys County, Mississippi,36.0245773,-87.7369607
Calhoun County, Mississippi,42.2073905,-85.02334599999999
Holmes County, Mississippi,40.5540928,-81.909826
Amite County, Mississippi,31.1683803,-90.8294002
Madison County, Mississippi,38.9041402,-89.9253233
Marion County, Mississippi,44.8446393,-122.5927411
Tishomingo County, Mississippi,34.7615024,-88.24611829999999
Wayne County, Mississippi,42.2790746,-83.33618799999999
Greene County, Mississippi,39.697399,-83.8897057
Marshall County, Mississippi,34.3652297,-86.3376761
Quitman County, Mississippi,31.8485969,-84.981754
Bolivar County, Mississippi,33.8829962,-90.8294002
Lamar County, Mississippi,33.75694,-95.6457951
Lee County, Mississippi,26.6630286,-81.9534815
Pike County, Mississippi,41.3361875,-75.06111469999999
Tallahatchie County, Mississippi,33.9302578,-90.1869644
Smith County, Mississippi,32.3352505,-95.3102505
Stone County, Mississippi,36.7748882,-93.4599326
Warren County, Mississippi,39.4241422,-84.1857115
Clarke County, Mississippi,33.9519347,-83.357567
Kemper County, Mississippi,32.8018452,-88.7108964
Montgomery County, Mississippi,39.1547426,-77.2405153
Oktibbeha County, Mississippi,33.3886689,-88.90306
Neshoba County, Mississippi,32.8057157,-89.1705998
Pearl River County, Mississippi,30.8034081,-89.62516459999999
Leake County, Mississippi,32.8073509,-89.4742177
Noxubee County, Mississippi,33.1605608,-88.55653099999999
Rankin County, Mississippi,32.2653668,-89.9253233
Tate County, Mississippi,34.6413971,-89.9626799
Washington County, Mississippi,45.5469616,-123.1386021
Lawrence County, Mississippi,40.957855,-80.365865
Panola County, Mississippi,32.1920035,-94.315422
Perry County, Mississippi,40.371376,-77.2405153
Yalobusha County, Mississippi,33.9768292,-89.6759101
Chickasaw County, Mississippi,33.8818791,-89.0179332
Carroll County, Mississippi,39.5423418,-77.0564464
Copiah County, Mississippi,31.9012453,-90.37483540000001
George County, Mississippi,30.8431226,-88.6723578
Grenada County, Mississippi,33.7516314,-89.81303559999999
Hinds County, Mississippi,32.2648353,-90.37483540000001
Jefferson County, Mississippi,39.5800298,-105.2662931
Newton County, Mississippi,33.5544296,-83.8473015
Union County, Mississippi,34.9338651,-80.54384499999999
Prentiss County, Mississippi,34.6324369,-88.5178518
Howell County, Missouri,36.8527979,-91.9099238
Carter County, Missouri,36.2638604,-82.12783999999999
Dade County, Missouri,25.5516034,-80.6326916
Linn County, Missouri,42.0659844,-91.67606909999999
Johnson County, Missouri,38.845412,-94.8520636
Laclede County, Missouri,37.6965235,-92.539603
Maries County, Missouri,38.1738674,-91.949021
Phelps County, Missouri,37.8806538,-91.7538817
Platte County, Missouri,39.34756489999999,-94.7691586
St. Francois County, Missouri,37.7652755,-90.4879916
St. Louis city, Missouri,38.6270025,-90.19940419999999
Andrew County, Missouri,39.9637436,-94.81059549999999
Butler County, Missouri,39.440463,-84.5222189
Carroll County, Missouri,39.5423418,-77.0564464
Daviess County, Missouri,37.7307984,-87.10237459999999
Holt County, Missouri,42.3803308,-98.6600586
Knox County, Missouri,35.9874629,-83.9419784
Ripley County, Missouri,39.0986811,-85.2308414
Marion County, Missouri,44.8446393,-122.5927411
Montgomery County, Missouri,39.1547426,-77.2405153
Osage County, Missouri,36.6189367,-96.2375947
Stoddard County, Missouri,36.8680558,-89.9253233
Warren County, Missouri,39.4241422,-84.1857115
Washington County, Missouri,45.5469616,-123.1386021
Audrain County, Missouri,39.22195300000001,-91.9099238
Christian County, Missouri,36.99764400000001,-93.17796589999999
DeKalb County, Missouri,33.7956441,-84.2278796
Greene County, Missouri,39.697399,-83.8897057
Harrison County, Missouri,30.432087,-89.0179332
Lafayette County, Missouri,39.0031288,-93.9878427
St. Clair County, Missouri,43.016179,-82.6483442
Adair County, Missouri,37.076403,-85.31362179999999
Schuyler County, Missouri,42.3796425,-76.8720961
Scotland County, Missouri,34.8451203,-79.4703885
Sullivan County, Missouri,41.6897493,-74.7805192
Camden County, Missouri,39.8592439,-75.0143824
Clark County, Missouri,36.0795613,-115.094045
Jasper County, Missouri,32.491436,-81.0754657
Jefferson County, Missouri,39.5800298,-105.2662931
Lewis County, Missouri,46.6195461,-122.4554639
McDonald County, Missouri,36.617812,-94.315422
New Madrid County, Missouri,36.5227538,-89.77553379999999
Perry County, Missouri,40.371376,-77.2405153
Polk County, Missouri,27.8617347,-81.6911559
Ralls County, Missouri,39.5582351,-91.5983959
Ray County, Missouri,39.3354791,-93.9878427
Stone County, Missouri,36.7748882,-93.4599326
Reynolds County, Missouri,37.378663,-90.9820668
St. Louis County, Missouri,38.6103023,-90.4125181
Scott County, Missouri,44.6834072,-93.54079089999999
Barry County, Missouri,42.5354321,-85.35496499999999
Barton County, Missouri,38.3613844,-98.7651482
Boone County, Missouri,38.9940572,-84.7315563
Cedar County, Missouri,41.8346154,-91.13530200000001
Cole County, Missouri,38.5052486,-92.2630393
Crawford County, Missouri,41.6661391,-80.2767327
Gasconade County, Missouri,38.4335915,-91.4821482
Iron County, Missouri,37.7854715,-113.1918021
Livingston County, Missouri,42.6207951,-83.8473015
Macon County, Missouri,35.1197519,-83.33618799999999
Moniteau County, Missouri,38.5827118,-92.5792482
Oregon County, Missouri,43.8041334,-120.5542012
Pemiscot County, Missouri,36.2195399,-89.81303559999999
Pettis County, Missouri,38.6893153,-93.33889169999999
Ste. Genevieve County, Missouri,37.8934532,-90.2244662
Shannon County, Missouri,37.2028249,-91.44346900000001
Randolph County, Missouri,35.7449531,-79.8296743
Douglas County, Missouri,39.2587106,-104.9388853
Dunklin County, Missouri,36.2364268,-90.055447
Franklin County, Missouri,40.0154745,-82.99316069999999
Henry County, Missouri,33.4347963,-84.14351359999999
Howard County, Missouri,39.2873463,-76.964306
Jackson County, Missouri,38.9914998,-94.315422
Lawrence County, Missouri,40.957855,-80.365865
Miller County, Missouri,33.3335556,-93.86553029999999
Pulaski County, Missouri,34.75386150000001,-92.2236667
Putnam County, Missouri,41.4351069,-73.7948516
Taney County, Missouri,36.6576378,-93.0175712
Buchanan County, Missouri,39.6349791,-94.81059549999999
Caldwell County, Missouri,35.9227448,-81.5596427
Callaway County, Missouri,38.8886044,-91.9099238
Cass County, Missouri,47.2144536,-94.2309171
Clinton County, Missouri,42.9663458,-84.5222189
Cooper County, Missouri,38.8693247,-92.8577105
Dallas County, Missouri,32.8024682,-96.83509989999999
Gentry County, Missouri,40.1406981,-94.479976
Hickory County, Missouri,37.9747242,-93.29861059999999
Lincoln County, Missouri,35.4637028,-81.20781640000001
Mississippi County, Missouri,35.8279728,-90.0746767
Monroe County, Missouri,43.2841246,-77.7452081
Newton County, Missouri,33.5544296,-83.8473015
Ozark County, Missouri,36.6720061,-92.38136209999999
Pike County, Missouri,41.3361875,-75.06111469999999
St. Charles County, Missouri,38.7338885,-90.8294002
Mercer County, Missouri,40.3028533,-74.7337069
Madison County, Missouri,38.9041402,-89.9253233
Wright County, Missouri,45.1538202,-94.01909429999999
Clay County, Missouri,29.9943564,-81.77870209999999
Vernon County, Missouri,43.5576968,-90.8294002
Dent County, Missouri,37.544666,-91.44346900000001
Saline County, Missouri,34.5708215,-92.539603
Nodaway County, Missouri,40.2907281,-94.81059549999999
Worth County, Missouri,43.3580686,-93.33889169999999
Chariton County, Missouri,39.5301517,-93.0175712
Grundy County, Missouri,41.3500531,-88.4016041
Morgan County, Missouri,41.0576176,-111.6183755
Wayne County, Missouri,42.2790746,-83.33618799999999
Bollinger County, Missouri,37.2115595,-90.0746767
Cape Girardeau County, Missouri,37.3821319,-89.62516459999999
Shelby County, Missouri,35.1268552,-89.9253233
Webster County, Missouri,42.3974963,-94.15137639999999
Atchison County, Missouri,39.5701137,-95.35208759999999
Bates County, Missouri,38.3216754,-94.315422
Benton County, Missouri,46.3166362,-119.5021582
Custer County, Montana,38.0615578,-105.3131185
Hill County, Montana,32.0621768,-97.179026
Chouteau County, Montana,48.0033098,-110.4737958
Treasure County, Montana,46.2106667,-107.2586096
Phillips County, Montana,34.4611206,-90.86751339999999
Powder River County, Montana,45.2968361,-105.5346556
Lincoln County, Montana,35.4637028,-81.20781640000001
Park County, Montana,39.0897928,-105.5943388
Roosevelt County, Montana,33.9538388,-103.3587288
Blaine County, Montana,43.4743428,-113.9664446
Liberty County, Montana,30.1633593,-94.81059549999999
Sweet Grass County, Montana,45.76727959999999,-109.8979908
Richland County, Montana,34.0412165,-80.9428911
Teton County, Montana,43.853632,-110.6314491
Prairie County, Montana,34.7636336,-91.5983959
Toole County, Montana,48.6974247,-111.6408212
Glacier County, Montana,48.5217475,-112.919665
Fallon County, Montana,46.3762402,-104.4280327
Daniels County, Montana,48.7744137,-105.7248763
Stillwater County, Montana,45.7001096,-109.3922403
Golden Valley County, Montana,46.3709324,-109.1743851
Judith Basin County, Montana,47.0609367,-110.2577109
Silver Bow County, Montana,45.8804293,-112.5843056
Deer Lodge County, Montana,46.10953139999999,-113.0212247
Jefferson County, Montana,39.5800298,-105.2662931
Granite County, Montana,46.3374643,-113.4647823
McCone County, Montana,47.4500913,-105.8810734
Wheatland County, Montana,51.0004921,-113.0246454
Madison County, Montana,38.9041402,-89.9253233
Rosebud County, Montana,46.3904836,-106.5944313
Sheridan County, Montana,44.787904,-106.925973
Carter County, Montana,36.2638604,-82.12783999999999
Dawson County, Montana,34.412912,-84.14351359999999
Big Horn County, Montana,44.6036387,-108.0941121
Broadwater County, Montana,46.2693726,-111.4519716
Lake County, Montana,42.3689363,-87.8271534
Lewis and Clark County, Montana,47.2963974,-112.4029787
Pondera County, Montana,48.2321517,-112.2886317
Yellowstone County, Montana,45.78565769999999,-108.4343805
Missoula County, Montana,47.0240503,-113.6869923
Ravalli County, Montana,46.0174639,-114.1817423
Valley County, Montana,44.9204669,-115.7926381
Cascade County, Montana,47.4688355,-111.5453227
Fergus County, Montana,47.2126745,-109.4141
Garfield County, Montana,39.6584775,-107.763621
Mineral County, Montana,37.6583677,-107.0067031
Petroleum County, Montana,47.1565346,-108.3203282
Powell County, Montana,37.8380647,-83.8260884
Sanders County, Montana,47.61094629999999,-115.1316944
Wibaux County, Montana,46.7836649,-104.3183897
Gallatin County, Montana,45.5388865,-111.1194231
Meagher County, Montana,46.620195,-110.8848271
Carbon County, Montana,40.901975,-75.667356
Beaverhead County, Montana,45.2135118,-113.1093046
Flathead County, Montana,48.424152,-114.15315
Musselshell County, Montana,46.4218783,-108.4064758
Garden County, Nebraska,41.7369721,-102.2547919
Hooker County, Nebraska,41.9368476,-101.0711758
Morrill County, Nebraska,41.6552418,-102.989615
Nemaha County, Nebraska,39.7451077,-95.9832577
Seward County, Nebraska,37.221014,-100.8903099
Thomas County, Nebraska,30.8417409,-83.8473015
Dakota County, Nebraska,44.731554,-93.17796589999999
Webster County, Nebraska,42.3974963,-94.15137639999999
Antelope County, Nebraska,42.1902446,-98.04651849999999
Chase County, Nebraska,38.3007661,-96.57833869999999
Butler County, Nebraska,39.440463,-84.5222189
Clay County, Nebraska,29.9943564,-81.77870209999999
Arthur County, Nebraska,41.5680276,-101.6157773
Custer County, Nebraska,38.0615578,-105.3131185
Franklin County, Nebraska,40.0154745,-82.99316069999999
Gage County, Nebraska,40.1989041,-96.663812
Hamilton County, Nebraska,39.2355447,-84.56414699999999
Loup County, Nebraska,41.9251335,-99.456155
Jefferson County, Nebraska,39.5800298,-105.2662931
Kearney County, Nebraska,40.5328331,-98.92453429999999
Keith County, Nebraska,41.1815863,-101.5248055
Madison County, Nebraska,38.9041402,-89.9253233
Perkins County, Nebraska,40.7922353,-101.4339148
Phelps County, Nebraska,37.8806538,-91.7538817
Saunders County, Nebraska,41.168563,-96.663812
Scotts Bluff County, Nebraska,41.8140936,-103.6362715
Wayne County, Nebraska,42.2790746,-83.33618799999999
Keya Paha County, Nebraska,42.8461857,-99.634135
Kimball County, Nebraska,41.1856601,-103.6362715
Knox County, Nebraska,35.9874629,-83.9419784
Lincoln County, Nebraska,35.4637028,-81.20781640000001
Merrick County, Nebraska,41.2031926,-98.0028892
Pierce County, Nebraska,47.0675877,-122.1295269
Sioux County, Nebraska,43.08699360000001,-96.15269850000001
Burt County, Nebraska,41.8252059,-96.3226072
Cass County, Nebraska,47.2144536,-94.2309171
Cuming County, Nebraska,41.95401529999999,-96.83509989999999
Dixon County, Nebraska,42.4257719,-96.83509989999999
Dundy County, Nebraska,40.13061210000001,-101.6157773
Grant County, Nebraska,47.1981147,-119.3732456
Greeley County, Nebraska,38.4738028,-101.7979613
Hall County, Nebraska,34.30778,-83.804868
Hayes County, Nebraska,40.5070797,-101.0711758
Otoe County, Nebraska,40.675971,-96.11029429999999
Red Willow County, Nebraska,40.2353963,-100.5296115
Cedar County, Nebraska,41.8346154,-91.13530200000001
Dawes County, Nebraska,42.6551733,-103.0817903
Johnson County, Nebraska,38.845412,-94.8520636
Cheyenne County, Nebraska,41.2509264,-103.0817903
Dawson County, Nebraska,34.412912,-84.14351359999999
Garfield County, Nebraska,39.6584775,-107.763621
McPherson County, Nebraska,38.3164433,-97.69822719999999
Nance County, Nebraska,41.3995947,-98.04651849999999
Pawnee County, Nebraska,38.2017581,-99.2785583
Stanton County, Nebraska,37.6390381,-101.7979613
Valley County, Nebraska,44.9204669,-115.7926381
Wheeler County, Nebraska,44.6659766,-120.0829624
Harlan County, Nebraska,36.8890304,-83.2077645
York County, Nebraska,34.9871367,-81.2518833
Blaine County, Nebraska,43.4743428,-113.9664446
Buffalo County, Nebraska,44.3102354,-91.7538817
Colfax County, Nebraska,36.5799757,-104.4723301
Deuel County, Nebraska,41.1401755,-102.3005803
Hitchcock County, Nebraska,40.1844599,-101.0711758
Logan County, Nebraska,40.38996789999999,-83.8473015
Platte County, Nebraska,39.34756489999999,-94.7691586
Polk County, Nebraska,27.8617347,-81.6911559
Thayer County, Nebraska,40.1460895,-97.5247243
Box Butte County, Nebraska,42.19114709999999,-103.0817903
Brown County, Nebraska,44.45616740000001,-87.9334803
Adams County, Nebraska,39.8398269,-104.1930918
Sheridan County, Nebraska,44.787904,-106.925973
Lancaster County, Nebraska,40.0466571,-76.17837390000001
Boone County, Nebraska,38.9940572,-84.7315563
Nuckolls County, Nebraska,40.110932,-98.04651849999999
Rock County, Nebraska,42.6251506,-89.0179332
Banner County, Nebraska,41.500766,-103.6362715
Frontier County, Nebraska,40.5744778,-100.3497895
Sherman County, Nebraska,45.4122013,-120.753042
Douglas County, Nebraska,39.2587106,-104.9388853
Richardson County, Nebraska,40.0898025,-95.6457951
Howard County, Nebraska,39.2873463,-76.964306
Holt County, Nebraska,42.3803308,-98.6600586
Furnas County, Nebraska,40.12139699999999,-99.99122539999999
Gosper County, Nebraska,40.4604851,-99.8124935
Saline County, Nebraska,34.5708215,-92.539603
Sarpy County, Nebraska,41.0744042,-96.19513200000002
Thurston County, Nebraska,46.8645747,-122.7695986
Washington County, Nebraska,45.5469616,-123.1386021
Boyd County, Nebraska,38.3833265,-82.6915429
Cherry County, Nebraska,42.474114,-101.1617356
Dodge County, Nebraska,43.3994215,-88.7108964
Fillmore County, Nebraska,43.6956298,-92.0665197
Cheshire County, New Hampshire,42.9259375,-72.236379
Merrimack County, New Hampshire,43.2844846,-71.6673352
Grafton County, New Hampshire,43.9087929,-71.825994
Rockingham County, New Hampshire,38.5825919,-78.8835548
Belknap County, New Hampshire,43.5024246,-71.4073938
Sullivan County, New Hampshire,41.6897493,-74.7805192
Hillsborough County, New Hampshire,27.9903597,-82.3017728
Strafford County, New Hampshire,43.238329,-71.0236044
Coos County, New Hampshire,43.242897,-124.105737
Carroll County, New Hampshire,39.5423418,-77.0564464
Churchill County, Nevada,39.6626678,-118.4863963
Douglas County, Nevada,39.2587106,-104.9388853
Lander County, Nevada,40.0510104,-116.9852422
Pershing County, Nevada,40.5685952,-118.4863963
Esmeralda County, Nevada,37.7866167,-117.3616476
Eureka County, Nevada,39.5126741,-115.9637979
Humboldt County, Nevada,40.7450055,-123.8695086
Mineral County, Nevada,37.6583677,-107.0067031
White Pine County, Nevada,39.5564495,-114.524264
Elko County, Nevada,41.2220182,-115.2837585
Lincoln County, Nevada,35.4637028,-81.20781640000001
Nye County, Nevada,38.58071109999999,-116.0413889
Storey County, Nevada,39.4089847,-119.5571677
Washoe County, Nevada,40.5608387,-119.6035495
Clark County, Nevada,36.0795613,-115.094045
Carson City, Nevada,39.1637984,-119.7674034
Lyon County, Nevada,38.9524739,-119.1390642
Monmouth County, New Jersey,40.2589455,-74.12399599999999
Mercer County, New Jersey,40.3028533,-74.7337069
Sussex County, New Jersey,38.65308410000001,-75.4344727
Cumberland County, New Jersey,34.9542604,-78.74762079999999
Somerset County, New Jersey,40.5292099,-74.64004320000001
Essex County, New Jersey,40.7947466,-74.2648829
Ocean County, New Jersey,39.9652553,-74.3118212
Atlantic County, New Jersey,39.5333379,-74.6868815
Gloucester County, New Jersey,39.7103023,-75.1078332
Middlesex County, New Jersey,40.4111363,-74.35874729999999
Salem County, New Jersey,39.5848777,-75.3878525
Passaic County, New Jersey,41.1231647,-74.35874729999999
Cape May County, New Jersey,39.105884,-74.8273184
Camden County, New Jersey,39.8592439,-75.0143824
Bergen County, New Jersey,40.9262762,-74.07701
Union County, New Jersey,34.9338651,-80.54384499999999
Warren County, New Jersey,39.4241422,-84.1857115
Hudson County, New Jersey,40.7453199,-74.05351259999999
Hunterdon County, New Jersey,40.56695149999999,-74.92087719999999
Burlington County, New Jersey,39.8558488,-74.6868815
Morris County, New Jersey,40.8336038,-74.54632819999999
San Juan County, New Mexico,48.61180350000001,-122.9602621
Quay County, New Mexico,34.9569924,-103.7289167
Lincoln County, New Mexico,35.4637028,-81.20781640000001
Chaves County, New Mexico,33.4757392,-104.4723301
Lea County, New Mexico,32.8968816,-103.3587288
Santa Fe County, New Mexico,35.3653705,-105.9699878
Union County, New Mexico,34.9338651,-80.54384499999999
Sierra County, New Mexico,39.5532845,-120.2512728
Socorro County, New Mexico,33.8837087,-106.7234639
Roosevelt County, New Mexico,33.9538388,-103.3587288
Los Alamos County, New Mexico,35.84962489999999,-106.3228338
Rio Arriba County, New Mexico,36.6162892,-106.7234639
San Miguel County, New Mexico,37.9781237,-108.1428669
Otero County, New Mexico,32.6341716,-105.5943388
Valencia County, New Mexico,34.6743674,-106.6291304
Torrance County, New Mexico,34.6784317,-105.9699878
Bernalillo County, New Mexico,35.0177854,-106.6291304
Cibola County, New Mexico,35.0947557,-107.8583868
De Baca County, New Mexico,34.2734196,-104.3791912
Guadalupe County, New Mexico,29.6477307,-97.87216
Catron County, New Mexico,34.1515173,-108.4276047
Hidalgo County, New Mexico,26.4656319,-98.2212979
Luna County, New Mexico,32.3259122,-107.8583868
McKinley County, New Mexico,35.71524720000001,-108.2377519
Sandoval County, New Mexico,35.6020667,-106.7234639
Taos County, New Mexico,36.4358718,-105.5943388
Grant County, New Mexico,47.1981147,-119.3732456
Curry County, New Mexico,42.54405029999999,-124.2781762
Colfax County, New Mexico,36.5799757,-104.4723301
Eddy County, New Mexico,32.4170622,-104.4723301
Harding County, New Mexico,35.8925537,-103.8216261
Mora County, New Mexico,35.9742154,-105.3300508
Schoharie County, New York,42.65503349999999,-74.4994517
Bronx County, New York,40.8447819,-73.8648268
Onondaga County, New York,43.026819,-76.17837390000001
Fulton County, New York,33.8033965,-84.3962535
Clinton County, New York,42.9663458,-84.5222189
Seneca County, New York,42.7651891,-76.8720961
Rensselaer County, New York,42.673664,-73.55941279999999
Putnam County, New York,41.4351069,-73.7948516
Franklin County, New York,40.0154745,-82.99316069999999
Herkimer County, New York,43.1630587,-74.8741045
Ontario County, New York,42.85098379999999,-77.2864879
Queens County, New York,40.7282239,-73.7948516
Steuben County, New York,42.321027,-77.3783789
Hamilton County, New York,39.2355447,-84.56414699999999
Washington County, New York,45.5469616,-123.1386021
Chautauqua County, New York,42.2312829,-79.560344
Kings County, New York,36.0988489,-119.8815203
Tioga County, New York,42.1256317,-76.3637285
Cayuga County, New York,42.7655231,-76.5488232
Orleans County, New York,43.4088624,-78.2020387
Saratoga County, New York,43.0324245,-73.93598209999999
Rockland County, New York,41.1489458,-73.98300290000002
Columbia County, New York,33.5098514,-82.25832969999999
Lewis County, New York,46.6195461,-122.4554639
Niagara County, New York,43.3119496,-78.74762079999999
Westchester County, New York,41.1220194,-73.7948516
Delaware County, New York,39.907793,-75.3878525
Essex County, New York,40.7947466,-74.2648829
Montgomery County, New York,39.1547426,-77.2405153
Nassau County, New York,40.6546145,-73.55941279999999
Richmond County, New York,33.3205339,-82.08429009999999
St. Lawrence County, New York,44.4473142,-74.930206
Schuyler County, New York,42.3796425,-76.8720961
Tompkins County, New York,42.4575747,-76.5488232
Warren County, New York,39.4241422,-84.1857115
Chenango County, New York,42.4972314,-75.62080879999999
Cortland County, New York,42.5440918,-75.9927652
Dutchess County, New York,41.7784372,-73.7477857
Jefferson County, New York,39.5800298,-105.2662931
Monroe County, New York,43.2841246,-77.7452081
Oneida County, New York,43.2371798,-75.4344727
Suffolk County, New York,40.9848784,-72.61511689999999
Ulster County, New York,41.8586493,-74.3118212
Wyoming County, New York,42.64205200000001,-78.2020387
Chemung County, New York,42.1362071,-76.7798172
Livingston County, New York,42.6207951,-83.8473015
Oswego County, New York,43.482533,-76.17837390000001
Otsego County, New York,42.5779779,-75.06111469999999
Greene County, New York,39.697399,-83.8897057
Wayne County, New York,42.2790746,-83.33618799999999
Albany County, New York,42.57567969999999,-73.93598209999999
Allegany County, New York,42.3129816,-78.0195387
Broome County, New York,42.1791865,-75.8533954
Cattaraugus County, New York,42.2318132,-78.74762079999999
Erie County, New York,42.9023958,-78.8661589
Madison County, New York,38.9041402,-89.9253233
Schenectady County, New York,42.8493445,-73.98300290000002
Sullivan County, New York,41.6897493,-74.7805192
Genesee County, New York,43.0777289,-83.67739279999999
Yates County, New York,42.64308459999999,-77.1485163
Orange County, New York,33.7174708,-117.8311428
Scotland County, North Carolina,34.8451203,-79.4703885
Watauga County, North Carolina,36.1941825,-81.73494199999999
Halifax County, North Carolina,36.2646764,-77.6077865
Alamance County, North Carolina,36.0117388,-79.4253776
Tyrrell County, North Carolina,35.8925537,-76.17837390000001
Greene County, North Carolina,39.697399,-83.8897057
Haywood County, North Carolina,35.624394,-82.99316069999999
Mitchell County, North Carolina,36.0277763,-82.1496049
Chowan County, North Carolina,36.1354131,-76.6181655
Alleghany County, North Carolina,37.8531975,-80.0534923
Caldwell County, North Carolina,35.9227448,-81.5596427
Catawba County, North Carolina,35.6840748,-81.2518833
Cleveland County, North Carolina,35.361354,-81.6035062
Craven County, North Carolina,35.0877672,-77.0564464
Edgecombe County, North Carolina,35.8840053,-77.6536125
Granville County, North Carolina,36.2799451,-78.6114999
Harnett County, North Carolina,35.35786480000001,-78.8835548
Hoke County, North Carolina,35.0432488,-79.24511489999999
Henderson County, North Carolina,35.3725873,-82.4319405
Hyde County, North Carolina,35.3777712,-76.17837390000001
